{
   "type": "FeatureCollection",
   "features": [
  {
    "type": "Feature",
    "geometry": {
       "type": "Point",
       "coordinates":  [ -122.437392,37.759881 ]
    },
    "properties": {
    "City":"San Francisco",
    "Country":"United States of America",
    "Population":3300000,
    "Total":"55404",
    "Rate":1.678909091
    }
  },
  {
    "type": "Feature",
    "geometry": {
       "type": "Point",
       "coordinates":  [ 18.0649,59.33258 ]
    },
    "properties": {
    "City":"Stockholm",
    "Country":"Sweden",
    "Population":1486000,
    "Total":"11668",
    "Rate":0.785195155
    }
  },
  {
    "type": "Feature",
    "geometry": {
       "type": "Point",
       "coordinates":  [ 4.88969,52.37403 ]
    },
    "properties": {
    "City":"Amsterdam",
    "Country":"Netherlands",
    "Population":1091000,
    "Total":"8511",
    "Rate":0.780109991
    }
  },
  {
    "type": "Feature",
    "geometry": {
       "type": "Point",
       "coordinates":  [ 174.77557,-41.28664 ]
    },
    "properties": {
    "City":"Wellington",
    "Country":"New Zealand",
    "Population":383000,
    "Total":"2828",
    "Rate":0.738381201
    }
  },
  {
    "type": "Feature",
    "geometry": {
       "type": "Point",
       "coordinates":  [ -97.74,30.27 ]
    },
    "properties": {
    "City":"Austin",
    "Country":"United States of America",
    "Population":1684000,
    "Total":"12318",
    "Rate":0.731472684
    }
  },
  {
    "type": "Feature",
    "geometry": {
       "type": "Point",
       "coordinates":  [ 8.38583,49.00472 ]
    },
    "properties": {
    "City":"Karlsruhe",
    "Country":"Germany",
    "Population":305000,
    "Total":"2111",
    "Rate":0.692131148
    }
  },
  {
    "type": "Feature",
    "geometry": {
       "type": "Point",
       "coordinates":  [ -83.74088,42.27756 ]
    },
    "properties": {
    "City":"Ann Arbor",
    "Country":"United States of America",
    "Population":317000,
    "Total":"2129",
    "Rate":0.671608833
    }
  },
  {
    "type": "Feature",
    "geometry": {
       "type": "Point",
       "coordinates":  [ -123.37,48.43 ]
    },
    "properties": {
    "City":"Victoria",
    "Country":"Canada",
    "Population":357000,
    "Total":"2376",
    "Rate":0.665546218
    }
  },
  {
    "type": "Feature",
    "geometry": {
       "type": "Point",
       "coordinates":  [ -6.24889,53.33306 ]
    },
    "properties": {
    "City":"Dublin",
    "Country":"Ireland",
    "Population":1169000,
    "Total":"7634",
    "Rate":0.653036784
    }
  },
  {
    "type": "Feature",
    "geometry": {
       "type": "Point",
       "coordinates":  [ 10.74609,59.91273 ]
    },
    "properties": {
    "City":"Oslo",
    "Country":"Norway",
    "Population":986000,
    "Total":"6171",
    "Rate":0.625862069
    }
  },
  {
    "type": "Feature",
    "geometry": {
       "type": "Point",
       "coordinates":  [ 13.41053,52.52437 ]
    },
    "properties": {
    "City":"Berlin",
    "Country":"Germany",
    "Population":3563000,
    "Total":"21062",
    "Rate":0.591131069
    }
  },
  {
    "type": "Feature",
    "geometry": {
       "type": "Point",
       "coordinates":  [ 11.573377,48.137076 ]
    },
    "properties": {
    "City":"M̟nchen (Munich)",
    "Country":"Germany",
    "Population":1438000,
    "Total":"8375",
    "Rate":0.58240612
    }
  },
  {
    "type": "Feature",
    "geometry": {
       "type": "Point",
       "coordinates":  [ -122.333144,47.626353 ]
    },
    "properties": {
    "City":"Seattle",
    "Country":"United States of America",
    "Population":3249000,
    "Total":"18178",
    "Rate":0.559495229
    }
  },
  {
    "type": "Feature",
    "geometry": {
       "type": "Point",
       "coordinates":  [ -70.7,19.46 ]
    },
    "properties": {
    "City":"Santiago",
    "Country":"Dominican Republic",
    "Population":577000,
    "Total":"3058",
    "Rate":0.529982669
    }
  },
  {
    "type": "Feature",
    "geometry": {
       "type": "Point",
       "coordinates":  [ 16.61,49.2 ]
    },
    "properties": {
    "City":"Brno",
    "Country":"Czech Republic",
    "Population":390000,
    "Total":"1996",
    "Rate":0.511794872
    }
  },
  {
    "type": "Feature",
    "geometry": {
       "type": "Point",
       "coordinates":  [ 23.6,46.76667 ]
    },
    "properties": {
    "City":"Cluj-Napoca",
    "Country":"Romania",
    "Population":327000,
    "Total":"1653",
    "Rate":0.505504587
    }
  },
  {
    "type": "Feature",
    "geometry": {
       "type": "Point",
       "coordinates":  [ 68.3666667,25.3666667 ]
    },
    "properties": {
    "City":"Hyderabad",
    "Country":"Pakistan",
    "Population":1772000,
    "Total":"8936",
    "Rate":0.504288939
    }
  },
  {
    "type": "Feature",
    "geometry": {
       "type": "Point",
       "coordinates":  [ -89.400114,43.069698 ]
    },
    "properties": {
    "City":"Madison",
    "Country":"United States of America",
    "Population":444000,
    "Total":"2212",
    "Rate":0.498198198
    }
  },
  {
    "type": "Feature",
    "geometry": {
       "type": "Point",
       "coordinates":  [ -3.1965,55.9521 ]
    },
    "properties": {
    "City":"Edinburgh",
    "Country":"United Kingdom",
    "Population":495000,
    "Total":"2404",
    "Rate":0.485656566
    }
  },
  {
    "type": "Feature",
    "geometry": {
       "type": "Point",
       "coordinates":  [ 23.32,42.7 ]
    },
    "properties": {
    "City":"Sofia",
    "Country":"Bulgaria",
    "Population":1226000,
    "Total":"5492",
    "Rate":0.447960848
    }
  },
  {
    "type": "Feature",
    "geometry": {
       "type": "Point",
       "coordinates":  [ 5.12222,52.09083 ]
    },
    "properties": {
    "City":"Utrecht",
    "Country":"Netherlands",
    "Population":480000,
    "Total":"2145",
    "Rate":0.446875
    }
  },
  {
    "type": "Feature",
    "geometry": {
       "type": "Point",
       "coordinates":  [ 12.57,55.68 ]
    },
    "properties": {
    "City":"K̼benhavn (Copenhagen)",
    "Country":"Denmark",
    "Population":1268000,
    "Total":"5623",
    "Rate":0.443454259
    }
  },
  {
    "type": "Feature",
    "geometry": {
       "type": "Point",
       "coordinates":  [ -122.679933,45.521525 ]
    },
    "properties": {
    "City":"Portland",
    "Country":"United States of America",
    "Population":2001000,
    "Total":"8835",
    "Rate":0.441529235
    }
  },
  {
    "type": "Feature",
    "geometry": {
       "type": "Point",
       "coordinates":  [ -123.12,49.25 ]
    },
    "properties": {
    "City":"Vancouver",
    "Country":"Canada",
    "Population":2485000,
    "Total":"10771",
    "Rate":0.433440644
    }
  },
  {
    "type": "Feature",
    "geometry": {
       "type": "Point",
       "coordinates":  [ 30.518634,50.445368 ]
    },
    "properties": {
    "City":"Kyiv (Kiev)",
    "Country":"Ukraine",
    "Population":2942000,
    "Total":"12672",
    "Rate":0.430727396
    }
  },
  {
    "type": "Feature",
    "geometry": {
       "type": "Point",
       "coordinates":  [ 8.50296,47.35785 ]
    },
    "properties": {
    "City":"Z̟rich (Zurich)",
    "Country":"Switzerland",
    "Population":1246000,
    "Total":"5283",
    "Rate":0.42399679
    }
  },
  {
    "type": "Feature",
    "geometry": {
       "type": "Point",
       "coordinates":  [ 6.63282,46.516 ]
    },
    "properties": {
    "City":"Lausanne",
    "Country":"Switzerland",
    "Population":353000,
    "Total":"1495",
    "Rate":0.423512748
    }
  },
  {
    "type": "Feature",
    "geometry": {
       "type": "Point",
       "coordinates":  [ -78.907167,35.988644 ]
    },
    "properties": {
    "City":"Durham",
    "Country":"United States of America",
    "Population":383000,
    "Total":"1620",
    "Rate":0.422976501
    }
  },
  {
    "type": "Feature",
    "geometry": {
       "type": "Point",
       "coordinates":  [ -1.67429,48.11198 ]
    },
    "properties": {
    "City":"Rennes",
    "Country":"France",
    "Population":329000,
    "Total":"1387",
    "Rate":0.421580547
    }
  },
  {
    "type": "Feature",
    "geometry": {
       "type": "Point",
       "coordinates":  [ 5.47778,51.44083 ]
    },
    "properties": {
    "City":"Eindhoven",
    "Country":"Netherlands",
    "Population":335000,
    "Total":"1392",
    "Rate":0.415522388
    }
  },
  {
    "type": "Feature",
    "geometry": {
       "type": "Point",
       "coordinates":  [ 19.942468,50.066777 ]
    },
    "properties": {
    "City":"Krak̟w (Cracow)",
    "Country":"Poland",
    "Population":760000,
    "Total":"3126",
    "Rate":0.411315789
    }
  },
  {
    "type": "Feature",
    "geometry": {
       "type": "Point",
       "coordinates":  [ 24.75353,59.43696 ]
    },
    "properties": {
    "City":"Tallinn",
    "Country":"Estonia",
    "Population":391000,
    "Total":"1602",
    "Rate":0.40971867
    }
  },
  {
    "type": "Feature",
    "geometry": {
       "type": "Point",
       "coordinates":  [ 24.940216,60.169246 ]
    },
    "properties": {
    "City":"Helsinki",
    "Country":"Finland",
    "Population":1180000,
    "Total":"4749",
    "Rate":0.402457627
    }
  },
  {
    "type": "Feature",
    "geometry": {
       "type": "Point",
       "coordinates":  [ 10,53.55 ]
    },
    "properties": {
    "City":"Hamburg",
    "Country":"Germany",
    "Population":1831000,
    "Total":"7259",
    "Rate":0.396450027
    }
  },
  {
    "type": "Feature",
    "geometry": {
       "type": "Point",
       "coordinates":  [ 110.36083,-7.78278 ]
    },
    "properties": {
    "City":"Yogyakarta",
    "Country":"Indonesia",
    "Population":385000,
    "Total":"1514",
    "Rate":0.393246753
    }
  },
  {
    "type": "Feature",
    "geometry": {
       "type": "Point",
       "coordinates":  [ -0.12574,51.50853 ]
    },
    "properties": {
    "City":"London",
    "Country":"United Kingdom",
    "Population":10313000,
    "Total":"39706",
    "Rate":0.385009212
    }
  },
  {
    "type": "Feature",
    "geometry": {
       "type": "Point",
       "coordinates":  [ 9.17702,48.78232 ]
    },
    "properties": {
    "City":"Stuttgart",
    "Country":"Germany",
    "Population":626000,
    "Total":"2398",
    "Rate":0.383067093
    }
  },
  {
    "type": "Feature",
    "geometry": {
       "type": "Point",
       "coordinates":  [ 14.42,50.09 ]
    },
    "properties": {
    "City":"Praha (Prague)",
    "Country":"Czech Republic",
    "Population":1314000,
    "Total":"4862",
    "Rate":0.370015221
    }
  },
  {
    "type": "Feature",
    "geometry": {
       "type": "Point",
       "coordinates":  [ 21.01178,52.22977 ]
    },
    "properties": {
    "City":"Warszawa (Warsaw)",
    "Country":"Poland",
    "Population":1722000,
    "Total":"6287",
    "Rate":0.365098722
    }
  },
  {
    "type": "Feature",
    "geometry": {
       "type": "Point",
       "coordinates":  [ -1.55336,47.21725 ]
    },
    "properties": {
    "City":"Nantes",
    "Country":"France",
    "Population":613000,
    "Total":"2176",
    "Rate":0.35497553
    }
  },
  {
    "type": "Feature",
    "geometry": {
       "type": "Point",
       "coordinates":  [ 27.57,53.9 ]
    },
    "properties": {
    "City":"Minsk",
    "Country":"Belarus",
    "Population":1915000,
    "Total":"6795",
    "Rate":0.354830287
    }
  },
  {
    "type": "Feature",
    "geometry": {
       "type": "Point",
       "coordinates":  [ 25.2798,54.68916 ]
    },
    "properties": {
    "City":"Vilnius",
    "Country":"Lithuania",
    "Population":517000,
    "Total":"1831",
    "Rate":0.354158607
    }
  },
  {
    "type": "Feature",
    "geometry": {
       "type": "Point",
       "coordinates":  [ 23.78712,61.49911 ]
    },
    "properties": {
    "City":"Tampere",
    "Country":"Finland",
    "Population":324000,
    "Total":"1140",
    "Rate":0.351851852
    }
  },
  {
    "type": "Feature",
    "geometry": {
       "type": "Point",
       "coordinates":  [ 149.13,-35.28 ]
    },
    "properties": {
    "City":"Canberra",
    "Country":"Australia",
    "Population":423000,
    "Total":"1481",
    "Rate":0.350118203
    }
  },
  {
    "type": "Feature",
    "geometry": {
       "type": "Point",
       "coordinates":  [ 144.96,-37.81 ]
    },
    "properties": {
    "City":"Melbourne",
    "Country":"Australia",
    "Population":4203000,
    "Total":"14565",
    "Rate":0.346538187
    }
  },
  {
    "type": "Feature",
    "geometry": {
       "type": "Point",
       "coordinates":  [ 7.09548,50.73438 ]
    },
    "properties": {
    "City":"Bonn",
    "Country":"Germany",
    "Population":337000,
    "Total":"1164",
    "Rate":0.345400593
    }
  },
  {
    "type": "Feature",
    "geometry": {
       "type": "Point",
       "coordinates":  [ 174.76667,-36.86667 ]
    },
    "properties": {
    "City":"Auckland",
    "Country":"New Zealand",
    "Population":1344000,
    "Total":"4614",
    "Rate":0.343303571
    }
  },
  {
    "type": "Feature",
    "geometry": {
       "type": "Point",
       "coordinates":  [ 3.87723,43.61092 ]
    },
    "properties": {
    "City":"Montpellier",
    "Country":"France",
    "Population":413000,
    "Total":"1417",
    "Rate":0.343099274
    }
  },
  {
    "type": "Feature",
    "geometry": {
       "type": "Point",
       "coordinates":  [ 151.21,-33.87 ]
    },
    "properties": {
    "City":"Sydney",
    "Country":"Australia",
    "Population":4505000,
    "Total":"15395",
    "Rate":0.34173141
    }
  },
  {
    "type": "Feature",
    "geometry": {
       "type": "Point",
       "coordinates":  [ 17.03333,51.1 ]
    },
    "properties": {
    "City":"Wroc⡷",
    "Country":"Poland",
    "Population":628000,
    "Total":"2070",
    "Rate":0.329617834
    }
  },
  {
    "type": "Feature",
    "geometry": {
       "type": "Point",
       "coordinates":  [ 13.73832,51.05089 ]
    },
    "properties": {
    "City":"Dresden",
    "Country":"Germany",
    "Population":550000,
    "Total":"1804",
    "Rate":0.328
    }
  },
  {
    "type": "Feature",
    "geometry": {
       "type": "Point",
       "coordinates":  [ -2.5966,51.4552 ]
    },
    "properties": {
    "City":"Bristol",
    "Country":"United Kingdom",
    "Population":648000,
    "Total":"2106",
    "Rate":0.325
    }
  },
  {
    "type": "Feature",
    "geometry": {
       "type": "Point",
       "coordinates":  [ 16.37,48.21 ]
    },
    "properties": {
    "City":"Wien (Vienna)",
    "Country":"Austria",
    "Population":1753000,
    "Total":"5685",
    "Rate":0.324301198
    }
  },
  {
    "type": "Feature",
    "geometry": {
       "type": "Point",
       "coordinates":  [ 6.95,50.93333 ]
    },
    "properties": {
    "City":"K̦ln (Cologne)",
    "Country":"Germany",
    "Population":1037000,
    "Total":"3363",
    "Rate":0.324300868
    }
  },
  {
    "type": "Feature",
    "geometry": {
       "type": "Point",
       "coordinates":  [ -121.89496,37.33939 ]
    },
    "properties": {
    "City":"San Jose",
    "Country":"United States of America",
    "Population":1730000,
    "Total":"5500",
    "Rate":0.317919075
    }
  },
  {
    "type": "Feature",
    "geometry": {
       "type": "Point",
       "coordinates":  [ -8.61099,41.14961 ]
    },
    "properties": {
    "City":"Porto",
    "Country":"Portugal",
    "Population":1299000,
    "Total":"4099",
    "Rate":0.315550423
    }
  },
  {
    "type": "Feature",
    "geometry": {
       "type": "Point",
       "coordinates":  [ 17.10674,48.14816 ]
    },
    "properties": {
    "City":"Bratislava",
    "Country":"Slovakia",
    "Population":401000,
    "Total":"1241",
    "Rate":0.309476309
    }
  },
  {
    "type": "Feature",
    "geometry": {
       "type": "Point",
       "coordinates":  [ -79.42,43.7 ]
    },
    "properties": {
    "City":"Toronto",
    "Country":"Canada",
    "Population":5993000,
    "Total":"18405",
    "Rate":0.307108293
    }
  },
  {
    "type": "Feature",
    "geometry": {
       "type": "Point",
       "coordinates":  [ 5.71667,45.16667 ]
    },
    "properties": {
    "City":"Grenoble",
    "Country":"France",
    "Population":503000,
    "Total":"1516",
    "Rate":0.30139165
    }
  },
  {
    "type": "Feature",
    "geometry": {
       "type": "Point",
       "coordinates":  [ 15.98,45.81 ]
    },
    "properties": {
    "City":"Zagreb",
    "Country":"Croatia",
    "Population":687000,
    "Total":"2042",
    "Rate":0.297234352
    }
  },
  {
    "type": "Feature",
    "geometry": {
       "type": "Point",
       "coordinates":  [ 77.59369,12.97194 ]
    },
    "properties": {
    "City":"Bangalore",
    "Country":"India",
    "Population":10087000,
    "Total":"28945",
    "Rate":0.286953505
    }
  },
  {
    "type": "Feature",
    "geometry": {
       "type": "Point",
       "coordinates":  [ 103.85007,1.28967 ]
    },
    "properties": {
    "City":"Singapore",
    "Country":"Singapore",
    "Population":5619000,
    "Total":"15982",
    "Rate":0.284427834
    }
  },
  {
    "type": "Feature",
    "geometry": {
       "type": "Point",
       "coordinates":  [ 1.44367,43.60426 ]
    },
    "properties": {
    "City":"Toulouse",
    "Country":"France",
    "Population":938000,
    "Total":"2633",
    "Rate":0.280703625
    }
  },
  {
    "type": "Feature",
    "geometry": {
       "type": "Point",
       "coordinates":  [ 7.44744,46.94809 ]
    },
    "properties": {
    "City":"Bern",
    "Country":"Switzerland",
    "Population":358000,
    "Total":"1002",
    "Rate":0.279888268
    }
  },
  {
    "type": "Feature",
    "geometry": {
       "type": "Point",
       "coordinates":  [ 24.10589,56.946 ]
    },
    "properties": {
    "City":"Riga",
    "Country":"Latvia",
    "Population":621000,
    "Total":"1708",
    "Rate":0.275040258
    }
  },
  {
    "type": "Feature",
    "geometry": {
       "type": "Point",
       "coordinates":  [ -71.06453,42.347919 ]
    },
    "properties": {
    "City":"Boston",
    "Country":"United States of America",
    "Population":4249000,
    "Total":"11679",
    "Rate":0.274864674
    }
  },
  {
    "type": "Feature",
    "geometry": {
       "type": "Point",
       "coordinates":  [ 172.63333,-43.53333 ]
    },
    "properties": {
    "City":"Christchurch",
    "Country":"New Zealand",
    "Population":351000,
    "Total":"943",
    "Rate":0.268660969
    }
  },
  {
    "type": "Feature",
    "geometry": {
       "type": "Point",
       "coordinates":  [ -71.21,46.81 ]
    },
    "properties": {
    "City":"Qu̩bec",
    "Country":"Canada",
    "Population":805000,
    "Total":"2141",
    "Rate":0.265962733
    }
  },
  {
    "type": "Feature",
    "geometry": {
       "type": "Point",
       "coordinates":  [ 19.03991,47.49801 ]
    },
    "properties": {
    "City":"Budapest",
    "Country":"Hungary",
    "Population":1714000,
    "Total":"4521",
    "Rate":0.263768961
    }
  },
  {
    "type": "Feature",
    "geometry": {
       "type": "Point",
       "coordinates":  [ -74.003663,40.717042 ]
    },
    "properties": {
    "City":"New York",
    "Country":"United States of America",
    "Population":18593000,
    "Total":"48,535",
    "Rate":0.261039101
    }
  },
  {
    "type": "Feature",
    "geometry": {
       "type": "Point",
       "coordinates":  [ 16.92993,52.40692 ]
    },
    "properties": {
    "City":"Pozna㬐oland",
    "Country":"Poland",
    "Population":545000,
    "Total":"1411",
    "Rate":0.258899083
    }
  },
  {
    "type": "Feature",
    "geometry": {
       "type": "Point",
       "coordinates":  [ -77.604633,43.156924 ]
    },
    "properties": {
    "City":"Rochester",
    "Country":"United States of America",
    "Population":733000,
    "Total":"1863",
    "Rate":0.254160982
    }
  },
  {
    "type": "Feature",
    "geometry": {
       "type": "Point",
       "coordinates":  [ 153.03,-27.47 ]
    },
    "properties": {
    "City":"Brisbane",
    "Country":"Australia",
    "Population":2202000,
    "Total":"5570",
    "Rate":0.252951862
    }
  },
  {
    "type": "Feature",
    "geometry": {
       "type": "Point",
       "coordinates":  [ 12.37129,51.33962 ]
    },
    "properties": {
    "City":"Leipzig",
    "Country":"Germany",
    "Population":551000,
    "Total":"1377",
    "Rate":0.249909256
    }
  },
  {
    "type": "Feature",
    "geometry": {
       "type": "Point",
       "coordinates":  [ -0.37739,39.46975 ]
    },
    "properties": {
    "City":"Valencia",
    "Country":"Spain",
    "Population":810000,
    "Total":"1991",
    "Rate":0.245802469
    }
  },
  {
    "type": "Feature",
    "geometry": {
       "type": "Point",
       "coordinates":  [ -79.98823,40.441823 ]
    },
    "properties": {
    "City":"Pittsburgh",
    "Country":"United States of America",
    "Population":1719000,
    "Total":"4167",
    "Rate":0.242408377
    }
  },
  {
    "type": "Feature",
    "geometry": {
       "type": "Point",
       "coordinates":  [ 79.84778,6.93194 ]
    },
    "properties": {
    "City":"Colombo",
    "Country":"Sri Lanka",
    "Population":707000,
    "Total":"1681",
    "Rate":0.237765205
    }
  },
  {
    "type": "Feature",
    "geometry": {
       "type": "Point",
       "coordinates":  [ -78.637471,35.778897 ]
    },
    "properties": {
    "City":"Raleigh",
    "Country":"United States of America",
    "Population":1140000,
    "Total":"2681",
    "Rate":0.235175439
    }
  },
  {
    "type": "Feature",
    "geometry": {
       "type": "Point",
       "coordinates":  [ 4.84671,45.74846 ]
    },
    "properties": {
    "City":"Lyon",
    "Country":"France",
    "Population":1609000,
    "Total":"3769",
    "Rate":0.234244873
    }
  },
  {
    "type": "Feature",
    "geometry": {
       "type": "Point",
       "coordinates":  [ -63.58,44.65 ]
    },
    "properties": {
    "City":"Halifax",
    "Country":"Canada",
    "Population":405000,
    "Total":"935",
    "Rate":0.230864198
    }
  },
  {
    "type": "Feature",
    "geometry": {
       "type": "Point",
       "coordinates":  [ 20.463309,44.817649 ]
    },
    "properties": {
    "City":"Beograd (Belgrade)",
    "Country":"Serbia",
    "Population":1182000,
    "Total":"2711",
    "Rate":0.229357022
    }
  },
  {
    "type": "Feature",
    "geometry": {
       "type": "Point",
       "coordinates":  [ 26.104302,44.432787 ]
    },
    "properties": {
    "City":"Bucuresti (Bucharest)",
    "Country":"Romania",
    "Population":1868000,
    "Total":"4283",
    "Rate":0.229282655
    }
  },
  {
    "type": "Feature",
    "geometry": {
       "type": "Point",
       "coordinates":  [ 2.3488,48.85341 ]
    },
    "properties": {
    "City":"Paris",
    "Country":"France",
    "Population":10843000,
    "Total":"24244",
    "Rate":0.223591257
    }
  },
  {
    "type": "Feature",
    "geometry": {
       "type": "Point",
       "coordinates":  [ -86.801056,33.515744 ]
    },
    "properties": {
    "City":"Birmingham",
    "Country":"United States of America",
    "Population":796000,
    "Total":"1765",
    "Rate":0.221733668
    }
  },
  {
    "type": "Feature",
    "geometry": {
       "type": "Point",
       "coordinates":  [ 8.80777,53.07516 ]
    },
    "properties": {
    "City":"Bremen",
    "Country":"Germany",
    "Population":549000,
    "Total":"1203",
    "Rate":0.219125683
    }
  },
  {
    "type": "Feature",
    "geometry": {
       "type": "Point",
       "coordinates":  [ 73.861578,18.516057 ]
    },
    "properties": {
    "City":"Pune (Poona)",
    "Country":"India",
    "Population":5728000,
    "Total":"12381",
    "Rate":0.216148743
    }
  },
  {
    "type": "Feature",
    "geometry": {
       "type": "Point",
       "coordinates":  [ -111.892622,40.7547 ]
    },
    "properties": {
    "City":"Salt Lake City",
    "Country":"United States of America",
    "Population":1096000,
    "Total":"2348",
    "Rate":0.214233577
    }
  },
  {
    "type": "Feature",
    "geometry": {
       "type": "Point",
       "coordinates":  [ -96.93333,18.88333 ]
    },
    "properties": {
    "City":"C̟rdoba",
    "Country":"Mexico",
    "Population":337000,
    "Total":"714",
    "Rate":0.211869436
    }
  },
  {
    "type": "Feature",
    "geometry": {
       "type": "Point",
       "coordinates":  [ 21.22722,45.74944 ]
    },
    "properties": {
    "City":"Timisoara",
    "Country":"Romania",
    "Population":320000,
    "Total":"674",
    "Rate":0.210625
    }
  },
  {
    "type": "Feature",
    "geometry": {
       "type": "Point",
       "coordinates":  [ -117.15726,32.71533 ]
    },
    "properties": {
    "City":"San Diego",
    "Country":"United States of America",
    "Population":3107000,
    "Total":"6403",
    "Rate":0.206083038
    }
  },
  {
    "type": "Feature",
    "geometry": {
       "type": "Point",
       "coordinates":  [ 85.3206,27.70169 ]
    },
    "properties": {
    "City":"Kathmandu",
    "Country":"Nepal",
    "Population":1183000,
    "Total":"2427",
    "Rate":0.205156382
    }
  },
  {
    "type": "Feature",
    "geometry": {
       "type": "Point",
       "coordinates":  [ 7.74296,48.58342 ]
    },
    "properties": {
    "City":"Strasbourg",
    "Country":"France",
    "Population":461000,
    "Total":"940",
    "Rate":0.203904555
    }
  },
  {
    "type": "Feature",
    "geometry": {
       "type": "Point",
       "coordinates":  [ -114.06,51.04 ]
    },
    "properties": {
    "City":"Calgary",
    "Country":"Canada",
    "Population":1337000,
    "Total":"2692",
    "Rate":0.201346298
    }
  },
  {
    "type": "Feature",
    "geometry": {
       "type": "Point",
       "coordinates":  [ 4.47917,51.9225 ]
    },
    "properties": {
    "City":"Rotterdam",
    "Country":"Netherlands",
    "Population":993000,
    "Total":"1929",
    "Rate":0.194259819
    }
  },
  {
    "type": "Feature",
    "geometry": {
       "type": "Point",
       "coordinates":  [ 18.64637,54.35205 ]
    },
    "properties": {
    "City":"Gda㳫",
    "Country":"Poland",
    "Population":460000,
    "Total":"874",
    "Rate":0.19
    }
  },
  {
    "type": "Feature",
    "geometry": {
       "type": "Point",
       "coordinates":  [ -0.5805,44.84044 ]
    },
    "properties": {
    "City":"Bordeaux",
    "Country":"France",
    "Population":891000,
    "Total":"1692",
    "Rate":0.18989899
    }
  },
  {
    "type": "Feature",
    "geometry": {
       "type": "Point",
       "coordinates":  [ 9.73322,52.37052 ]
    },
    "properties": {
    "City":"Hannover",
    "Country":"Germany",
    "Population":533000,
    "Total":"997",
    "Rate":0.187054409
    }
  },
  {
    "type": "Feature",
    "geometry": {
       "type": "Point",
       "coordinates":  [ 8.46472,49.48833 ]
    },
    "properties": {
    "City":"Mannheim",
    "Country":"Germany",
    "Population":319000,
    "Total":"581",
    "Rate":0.182131661
    }
  },
  {
    "type": "Feature",
    "geometry": {
       "type": "Point",
       "coordinates":  [ 3.05858,50.63297 ]
    },
    "properties": {
    "City":"Lille",
    "Country":"France",
    "Population":1027000,
    "Total":"1850",
    "Rate":0.180136319
    }
  },
  {
    "type": "Feature",
    "geometry": {
       "type": "Point",
       "coordinates":  [ 23.69,52.1 ]
    },
    "properties": {
    "City":"Brest",
    "Country":"Belarus",
    "Population":321000,
    "Total":"573",
    "Rate":0.178504673
    }
  },
  {
    "type": "Feature",
    "geometry": {
       "type": "Point",
       "coordinates":  [ -84.551367,42.728422 ]
    },
    "properties": {
    "City":"Lansing",
    "Country":"United States of America",
    "Population":320000,
    "Total":"563",
    "Rate":0.1759375
    }
  },
  {
    "type": "Feature",
    "geometry": {
       "type": "Point",
       "coordinates":  [ 116.4,39.91 ]
    },
    "properties": {
    "City":"Beijing",
    "Country":"China",
    "Population":20384000,
    "Total":"35614",
    "Rate":0.174715463
    }
  },
  {
    "type": "Feature",
    "geometry": {
       "type": "Point",
       "coordinates":  [ -5.929812,54.594668 ]
    },
    "properties": {
    "City":"Belfast",
    "Country":"United Kingdom",
    "Population":605000,
    "Total":"1026",
    "Rate":0.169586777
    }
  },
  {
    "type": "Feature",
    "geometry": {
       "type": "Point",
       "coordinates":  [ 18.36,43.85 ]
    },
    "properties": {
    "City":"Sarajevo",
    "Country":"Bosnia and Herzegovina",
    "Population":318000,
    "Total":"533",
    "Rate":0.167610063
    }
  },
  {
    "type": "Feature",
    "geometry": {
       "type": "Point",
       "coordinates":  [ -84.4,33.76 ]
    },
    "properties": {
    "City":"Atlanta",
    "Country":"United States of America",
    "Population":5142000,
    "Total":"8617",
    "Rate":0.167580708
    }
  },
  {
    "type": "Feature",
    "geometry": {
       "type": "Point",
       "coordinates":  [ -0.48149,38.34517 ]
    },
    "properties": {
    "City":"Alicante",
    "Country":"Spain",
    "Population":346000,
    "Total":"579",
    "Rate":0.16734104
    }
  },
  {
    "type": "Feature",
    "geometry": {
       "type": "Point",
       "coordinates":  [ -118.241716,34.031656 ]
    },
    "properties": {
    "City":"Los Angeles",
    "Country":"United States of America",
    "Population":12310000,
    "Total":"20575",
    "Rate":0.167140536
    }
  },
  {
    "type": "Feature",
    "geometry": {
       "type": "Point",
       "coordinates":  [ -87.65005,41.85003 ]
    },
    "properties": {
    "City":"Chicago",
    "Country":"United States of America",
    "Population":8745000,
    "Total":"14602",
    "Rate":0.166975415
    }
  },
  {
    "type": "Feature",
    "geometry": {
       "type": "Point",
       "coordinates":  [ 11.966273,57.703161 ]
    },
    "properties": {
    "City":"G̦teborg",
    "Country":"Sweden",
    "Population":586000,
    "Total":"976",
    "Rate":0.166552901
    }
  },
  {
    "type": "Feature",
    "geometry": {
       "type": "Point",
       "coordinates":  [ 7.57327,47.5584 ]
    },
    "properties": {
    "City":"Basel",
    "Country":"Switzerland",
    "Population":508000,
    "Total":"845",
    "Rate":0.166338583
    }
  },
  {
    "type": "Feature",
    "geometry": {
       "type": "Point",
       "coordinates":  [ 121.55,25.05 ]
    },
    "properties": {
    "City":"Taipei",
    "Country":"China",
    "Population":2666000,
    "Total":"4429",
    "Rate":0.166129032
    }
  },
  {
    "type": "Feature",
    "geometry": {
       "type": "Point",
       "coordinates":  [ 115.85,-31.95 ]
    },
    "properties": {
    "City":"Perth",
    "Country":"Australia",
    "Population":1861000,
    "Total":"3056",
    "Rate":0.164212789
    }
  },
  {
    "type": "Feature",
    "geometry": {
       "type": "Point",
       "coordinates":  [ -3.70256,40.4165 ]
    },
    "properties": {
    "City":"Madrid",
    "Country":"Spain",
    "Population":6199000,
    "Total":"10007",
    "Rate":0.161429263
    }
  },
  {
    "type": "Feature",
    "geometry": {
       "type": "Point",
       "coordinates":  [ -75.68,4.53 ]
    },
    "properties": {
    "City":"Armenia",
    "Country":"Colombia",
    "Population":400000,
    "Total":"643",
    "Rate":0.16075
    }
  },
  {
    "type": "Feature",
    "geometry": {
       "type": "Point",
       "coordinates":  [ 36.25272,49.98081 ]
    },
    "properties": {
    "City":"Kharkiv",
    "Country":"Ukraine",
    "Population":1441000,
    "Total":"2302",
    "Rate":0.159750173
    }
  },
  {
    "type": "Feature",
    "geometry": {
       "type": "Point",
       "coordinates":  [ -81.37924,28.53834 ]
    },
    "properties": {
    "City":"Orlando",
    "Country":"United States of America",
    "Population":1731000,
    "Total":"2755",
    "Rate":0.159156557
    }
  },
  {
    "type": "Feature",
    "geometry": {
       "type": "Point",
       "coordinates":  [ 2.15899,41.38879 ]
    },
    "properties": {
    "City":"Barcelona",
    "Country":"Spain",
    "Population":5258000,
    "Total":"8242",
    "Rate":0.156751617
    }
  },
  {
    "type": "Feature",
    "geometry": {
       "type": "Point",
       "coordinates":  [ -79.17,-0.25 ]
    },
    "properties": {
    "City":"Santo Domingo",
    "Country":"Ecuador",
    "Population":316000,
    "Total":"488",
    "Rate":0.15443038
    }
  },
  {
    "type": "Feature",
    "geometry": {
       "type": "Point",
       "coordinates":  [ 23.74897,37.95342 ]
    },
    "properties": {
    "City":"Ath̟nai (Athens)",
    "Country":"Greece",
    "Population":3052000,
    "Total":"4698",
    "Rate":0.153931848
    }
  },
  {
    "type": "Feature",
    "geometry": {
       "type": "Point",
       "coordinates":  [ -77.438159,37.543207 ]
    },
    "properties": {
    "City":"Richmond",
    "Country":"United States of America",
    "Population":1030000,
    "Total":"1583",
    "Rate":0.15368932
    }
  },
  {
    "type": "Feature",
    "geometry": {
       "type": "Point",
       "coordinates":  [ -86.589848,34.729703 ]
    },
    "properties": {
    "City":"Huntsville",
    "Country":"United States of America",
    "Population":334000,
    "Total":"509",
    "Rate":0.15239521
    }
  },
  {
    "type": "Feature",
    "geometry": {
       "type": "Point",
       "coordinates":  [ -2.92528,43.26271 ]
    },
    "properties": {
    "City":"Bilbao",
    "Country":"Spain",
    "Population":351000,
    "Total":"525",
    "Rate":0.14957265
    }
  },
  {
    "type": "Feature",
    "geometry": {
       "type": "Point",
       "coordinates":  [ 138.6,-34.93 ]
    },
    "properties": {
    "City":"Adelaide",
    "Country":"Australia",
    "Population":1256000,
    "Total":"1849",
    "Rate":0.147213376
    }
  },
  {
    "type": "Feature",
    "geometry": {
       "type": "Point",
       "coordinates":  [ 27.92,43.22 ]
    },
    "properties": {
    "City":"Varna",
    "Country":"Bulgaria",
    "Population":342000,
    "Total":"502",
    "Rate":0.146783626
    }
  },
  {
    "type": "Feature",
    "geometry": {
       "type": "Point",
       "coordinates":  [ -3.18,51.48 ]
    },
    "properties": {
    "City":"Cardiff",
    "Country":"United Kingdom",
    "Population":468000,
    "Total":"678",
    "Rate":0.144871795
    }
  },
  {
    "type": "Feature",
    "geometry": {
       "type": "Point",
       "coordinates":  [ 76.7933,30.7343 ]
    },
    "properties": {
    "City":"Chandigarh",
    "Country":"India",
    "Population":1134000,
    "Total":"1622",
    "Rate":0.14303351
    }
  },
  {
    "type": "Feature",
    "geometry": {
       "type": "Point",
       "coordinates":  [ 19.02754,50.25842 ]
    },
    "properties": {
    "City":"Katowice",
    "Country":"Poland",
    "Population":303000,
    "Total":"433",
    "Rate":0.14290429
    }
  },
  {
    "type": "Feature",
    "geometry": {
       "type": "Point",
       "coordinates":  [ 22.94389,40.64028 ]
    },
    "properties": {
    "City":"Thessaloniki",
    "Country":"Greece",
    "Population":737000,
    "Total":"1051",
    "Rate":0.142605156
    }
  },
  {
    "type": "Feature",
    "geometry": {
       "type": "Point",
       "coordinates":  [ -85.664883,42.956393 ]
    },
    "properties": {
    "City":"Grand Rapids",
    "Country":"United States of America",
    "Population":585000,
    "Total":"834",
    "Rate":0.142564103
    }
  },
  {
    "type": "Feature",
    "geometry": {
       "type": "Point",
       "coordinates":  [ -2.997939,51.58471 ]
    },
    "properties": {
    "City":"Newport",
    "Country":"United Kingdom",
    "Population":314000,
    "Total":"445",
    "Rate":0.141719745
    }
  },
  {
    "type": "Feature",
    "geometry": {
       "type": "Point",
       "coordinates":  [ -113.5,53.54 ]
    },
    "properties": {
    "City":"Edmonton",
    "Country":"Canada",
    "Population":1272000,
    "Total":"1782",
    "Rate":0.14009434
    }
  },
  {
    "type": "Feature",
    "geometry": {
       "type": "Point",
       "coordinates":  [ -119.8138,39.52963 ]
    },
    "properties": {
    "City":"Reno",
    "Country":"United States of America",
    "Population":447000,
    "Total":"604",
    "Rate":0.135123043
    }
  },
  {
    "type": "Feature",
    "geometry": {
       "type": "Point",
       "coordinates":  [ 4.2986,52.0767 ]
    },
    "properties": {
    "City":"s-Gravenhage (The Hague)",
    "Country":"Netherlands",
    "Population":650000,
    "Total":"876",
    "Rate":0.134769231
    }
  },
  {
    "type": "Feature",
    "geometry": {
       "type": "Point",
       "coordinates":  [ -85.267255,35.045473 ]
    },
    "properties": {
    "City":"Chattanooga",
    "Country":"United States of America",
    "Population":401000,
    "Total":"540",
    "Rate":0.134663342
    }
  },
  {
    "type": "Feature",
    "geometry": {
       "type": "Point",
       "coordinates":  [ -9.139867,38.71686 ]
    },
    "properties": {
    "City":"Lisboa (Lisbon)",
    "Country":"Portugal",
    "Population":2884000,
    "Total":"3879",
    "Rate":0.134500693
    }
  },
  {
    "type": "Feature",
    "geometry": {
       "type": "Point",
       "coordinates":  [ -1.4659,53.38297 ]
    },
    "properties": {
    "City":"Sheffield",
    "Country":"United Kingdom",
    "Population":706000,
    "Total":"949",
    "Rate":0.134419263
    }
  },
  {
    "type": "Feature",
    "geometry": {
       "type": "Point",
       "coordinates":  [ 120.16,30.29 ]
    },
    "properties": {
    "City":"Hangzhou",
    "Country":"China",
    "Population":6391000,
    "Total":"8573",
    "Rate":0.134141762
    }
  },
  {
    "type": "Feature",
    "geometry": {
       "type": "Point",
       "coordinates":  [ -97.13,49.9 ]
    },
    "properties": {
    "City":"Winnipeg",
    "Country":"Canada",
    "Population":759000,
    "Total":"1016",
    "Rate":0.133860343
    }
  },
  {
    "type": "Feature",
    "geometry": {
       "type": "Point",
       "coordinates":  [ -49.07,-26.92 ]
    },
    "properties": {
    "City":"Blumenau",
    "Country":"Brazil",
    "Population":319000,
    "Total":"422",
    "Rate":0.132288401
    }
  },
  {
    "type": "Feature",
    "geometry": {
       "type": "Point",
       "coordinates":  [ -82.397334,34.849805 ]
    },
    "properties": {
    "City":"Greenville",
    "Country":"United States of America",
    "Population":463000,
    "Total":"610",
    "Rate":0.13174946
    }
  },
  {
    "type": "Feature",
    "geometry": {
       "type": "Point",
       "coordinates":  [ 73.059373,33.70351 ]
    },
    "properties": {
    "City":"Islamabad",
    "Country":"Pakistan",
    "Population":1365000,
    "Total":"1788",
    "Rate":0.130989011
    }
  },
  {
    "type": "Feature",
    "geometry": {
       "type": "Point",
       "coordinates":  [ -4.25763,55.86515 ]
    },
    "properties": {
    "City":"Glasgow",
    "Country":"United Kingdom",
    "Population":1223000,
    "Total":"1599",
    "Rate":0.130744072
    }
  },
  {
    "type": "Feature",
    "geometry": {
       "type": "Point",
       "coordinates":  [ -2.23743,53.48095 ]
    },
    "properties": {
    "City":"Manchester",
    "Country":"United Kingdom",
    "Population":2646000,
    "Total":"3459",
    "Rate":0.130725624
    }
  },
  {
    "type": "Feature",
    "geometry": {
       "type": "Point",
       "coordinates":  [ 14.55302,53.42894 ]
    },
    "properties": {
    "City":"Szczecin",
    "Country":"Poland",
    "Population":407000,
    "Total":"529",
    "Rate":0.12997543
    }
  },
  {
    "type": "Feature",
    "geometry": {
       "type": "Point",
       "coordinates":  [ -48.55,-27.6 ]
    },
    "properties": {
    "City":"Florian̟polis",
    "Country":"Brazil",
    "Population":1180000,
    "Total":"1515",
    "Rate":0.128389831
    }
  },
  {
    "type": "Feature",
    "geometry": {
       "type": "Point",
       "coordinates":  [ -80.84313,35.22709 ]
    },
    "properties": {
    "City":"Charlotte",
    "Country":"United States of America",
    "Population":1616000,
    "Total":"2069",
    "Rate":0.128032178
    }
  },
  {
    "type": "Feature",
    "geometry": {
       "type": "Point",
       "coordinates":  [ 107.608456,-6.919393 ]
    },
    "properties": {
    "City":"Bandung",
    "Country":"Indonesia",
    "Population":2544000,
    "Total":"3240",
    "Rate":0.127358491
    }
  },
  {
    "type": "Feature",
    "geometry": {
       "type": "Point",
       "coordinates":  [ 7.45,51.51667 ]
    },
    "properties": {
    "City":"Dortmund",
    "Country":"Germany",
    "Population":577000,
    "Total":"733",
    "Rate":0.127036395
    }
  },
  {
    "type": "Feature",
    "geometry": {
       "type": "Point",
       "coordinates":  [ -85.763064,38.24194 ]
    },
    "properties": {
    "City":"Louisville",
    "Country":"United States of America",
    "Population":1032000,
    "Total":"1287",
    "Rate":0.124709302
    }
  },
  {
    "type": "Feature",
    "geometry": {
       "type": "Point",
       "coordinates":  [ -80.51,43.43 ]
    },
    "properties": {
    "City":"Kitchener",
    "Country":"Canada",
    "Population":499000,
    "Total":"620",
    "Rate":0.124248497
    }
  },
  {
    "type": "Feature",
    "geometry": {
       "type": "Point",
       "coordinates":  [ 78.47444,17.37528 ]
    },
    "properties": {
    "City":"Hyderabad",
    "Country":"India",
    "Population":8944000,
    "Total":"11036",
    "Rate":0.123389982
    }
  },
  {
    "type": "Feature",
    "geometry": {
       "type": "Point",
       "coordinates":  [ 24.75,42.15 ]
    },
    "properties": {
    "City":"Plovdiv",
    "Country":"Bulgaria",
    "Population":338000,
    "Total":"414",
    "Rate":0.122485207
    }
  },
  {
    "type": "Feature",
    "geometry": {
       "type": "Point",
       "coordinates":  [ -4.76667,37.88333 ]
    },
    "properties": {
    "City":"Cordoba",
    "Country":"Spain",
    "Population":335000,
    "Total":"409",
    "Rate":0.122089552
    }
  },
  {
    "type": "Feature",
    "geometry": {
       "type": "Point",
       "coordinates":  [ -76.147496,43.046788 ]
    },
    "properties": {
    "City":"Syracuse",
    "Country":"United States of America",
    "Population":417000,
    "Total":"509",
    "Rate":0.12206235
    }
  },
  {
    "type": "Feature",
    "geometry": {
       "type": "Point",
       "coordinates":  [ 8.53333,52.03333 ]
    },
    "properties": {
    "City":"Bielefeld",
    "Country":"Germany",
    "Population":321000,
    "Total":"390",
    "Rate":0.121495327
    }
  },
  {
    "type": "Feature",
    "geometry": {
       "type": "Point",
       "coordinates":  [ -5.97613,37.38241 ]
    },
    "properties": {
    "City":"Sevilla",
    "Country":"Spain",
    "Population":701000,
    "Total":"841",
    "Rate":0.119971469
    }
  },
  {
    "type": "Feature",
    "geometry": {
       "type": "Point",
       "coordinates":  [ -95.93777778,41.25861111 ]
    },
    "properties": {
    "City":"Omaha",
    "Country":"United States of America",
    "Population":780000,
    "Total":"935",
    "Rate":0.119871795
    }
  },
  {
    "type": "Feature",
    "geometry": {
       "type": "Point",
       "coordinates":  [ -83.01,42.28 ]
    },
    "properties": {
    "City":"Windsor",
    "Country":"Canada",
    "Population":315000,
    "Total":"374",
    "Rate":0.118730159
    }
  },
  {
    "type": "Feature",
    "geometry": {
       "type": "Point",
       "coordinates":  [ -56.16735,-34.83346 ]
    },
    "properties": {
    "City":"Montevideo",
    "Country":"Uruguay",
    "Population":1707000,
    "Total":"2011",
    "Rate":0.117809022
    }
  },
  {
    "type": "Feature",
    "geometry": {
       "type": "Point",
       "coordinates":  [ 9.18344,45.55307 ]
    },
    "properties": {
    "City":"Milano (Milan)",
    "Country":"Italy",
    "Population":3099000,
    "Total":"3633",
    "Rate":0.117231365
    }
  },
  {
    "type": "Feature",
    "geometry": {
       "type": "Point",
       "coordinates":  [ 11.33875,44.49381 ]
    },
    "properties": {
    "City":"Bologna",
    "Country":"Italy",
    "Population":784000,
    "Total":"917",
    "Rate":0.116964286
    }
  },
  {
    "type": "Feature",
    "geometry": {
       "type": "Point",
       "coordinates":  [ 22.56667,51.25 ]
    },
    "properties": {
    "City":"Lublin",
    "Country":"Poland",
    "Population":346000,
    "Total":"400",
    "Rate":0.115606936
    }
  },
  {
    "type": "Feature",
    "geometry": {
       "type": "Point",
       "coordinates":  [ 37.621849,55.754996 ]
    },
    "properties": {
    "City":"Moskva (Moscow)",
    "Country":"Russian Federation",
    "Population":12166000,
    "Total":"14056",
    "Rate":0.115535098
    }
  },
  {
    "type": "Feature",
    "geometry": {
       "type": "Point",
       "coordinates":  [ -86.147685,39.790942 ]
    },
    "properties": {
    "City":"Indianapolis",
    "Country":"United States of America",
    "Population":1646000,
    "Total":"1883",
    "Rate":0.114398542
    }
  },
  {
    "type": "Feature",
    "geometry": {
       "type": "Point",
       "coordinates":  [ -110.918192,32.214476 ]
    },
    "properties": {
    "City":"Tucson",
    "Country":"United States of America",
    "Population":913000,
    "Total":"1042",
    "Rate":0.114129244
    }
  },
  {
    "type": "Feature",
    "geometry": {
       "type": "Point",
       "coordinates":  [ -94.62746,39.11417 ]
    },
    "properties": {
    "City":"Kansas City",
    "Country":"United States of America",
    "Population":1604000,
    "Total":"1827",
    "Rate":0.113902743
    }
  },
  {
    "type": "Feature",
    "geometry": {
       "type": "Point",
       "coordinates":  [ 80.24875,13.053091 ]
    },
    "properties": {
    "City":"Chennai (Madras)",
    "Country":"India",
    "Population":9890000,
    "Total":"11248",
    "Rate":0.113731041
    }
  },
  {
    "type": "Feature",
    "geometry": {
       "type": "Point",
       "coordinates":  [ -78.871593,42.887934 ]
    },
    "properties": {
    "City":"Buffalo",
    "Country":"United States of America",
    "Population":913000,
    "Total":"1038",
    "Rate":0.113691128
    }
  },
  {
    "type": "Feature",
    "geometry": {
       "type": "Point",
       "coordinates":  [ 112.6304,-7.9797 ]
    },
    "properties": {
    "City":"Malang",
    "Country":"Indonesia",
    "Population":856000,
    "Total":"969",
    "Rate":0.113200935
    }
  },
  {
    "type": "Feature",
    "geometry": {
       "type": "Point",
       "coordinates":  [ -82.55581,35.579862 ]
    },
    "properties": {
    "City":"Asheville",
    "Country":"United States of America",
    "Population":317000,
    "Total":"358",
    "Rate":0.112933754
    }
  },
  {
    "type": "Feature",
    "geometry": {
       "type": "Point",
       "coordinates":  [ -1.15047,52.9536 ]
    },
    "properties": {
    "City":"Nottingham",
    "Country":"United Kingdom",
    "Population":755000,
    "Total":"850",
    "Rate":0.112582781
    }
  },
  {
    "type": "Feature",
    "geometry": {
       "type": "Point",
       "coordinates":  [ 3.72,51.05 ]
    },
    "properties": {
    "City":"Gent",
    "Country":"Belgium",
    "Population":435000,
    "Total":"488",
    "Rate":0.112183908
    }
  },
  {
    "type": "Feature",
    "geometry": {
       "type": "Point",
       "coordinates":  [ -79.85,43.25 ]
    },
    "properties": {
    "City":"Hamilton",
    "Country":"Canada",
    "Population":744000,
    "Total":"831",
    "Rate":0.111693548
    }
  },
  {
    "type": "Feature",
    "geometry": {
       "type": "Point",
       "coordinates":  [ -117.410271,47.673341 ]
    },
    "properties": {
    "City":"Spokane",
    "Country":"United States of America",
    "Population":418000,
    "Total":"460",
    "Rate":0.110047847
    }
  },
  {
    "type": "Feature",
    "geometry": {
       "type": "Point",
       "coordinates":  [ -93.60911,41.60054 ]
    },
    "properties": {
    "City":"Des Moines",
    "Country":"United States of America",
    "Population":497000,
    "Total":"542",
    "Rate":0.109054326
    }
  },
  {
    "type": "Feature",
    "geometry": {
       "type": "Point",
       "coordinates":  [ 18.42322,-33.92584 ]
    },
    "properties": {
    "City":"Cape Town",
    "Country":"South Africa",
    "Population":3660000,
    "Total":"3983",
    "Rate":0.108825137
    }
  },
  {
    "type": "Feature",
    "geometry": {
       "type": "Point",
       "coordinates":  [ -4.72372,41.65518 ]
    },
    "properties": {
    "City":"Valladolid",
    "Country":"Spain",
    "Population":309000,
    "Total":"331",
    "Rate":0.107119741
    }
  },
  {
    "type": "Feature",
    "geometry": {
       "type": "Point",
       "coordinates":  [ -51.94,-23.43 ]
    },
    "properties": {
    "City":"Marinǵ",
    "Country":"Brazil",
    "Population":390000,
    "Total":"417",
    "Rate":0.106923077
    }
  },
  {
    "type": "Feature",
    "geometry": {
       "type": "Point",
       "coordinates":  [ -76.61219,39.29038 ]
    },
    "properties": {
    "City":"Baltimore",
    "Country":"United States of America",
    "Population":2267000,
    "Total":"2391",
    "Rate":0.105469784
    }
  },
  {
    "type": "Feature",
    "geometry": {
       "type": "Point",
       "coordinates":  [ 7.21667,51.48333 ]
    },
    "properties": {
    "City":"Bochum",
    "Country":"Germany",
    "Population":367000,
    "Total":"384",
    "Rate":0.104632153
    }
  },
  {
    "type": "Feature",
    "geometry": {
       "type": "Point",
       "coordinates":  [ -60.7,-31.63 ]
    },
    "properties": {
    "City":"Santa Fe",
    "Country":"Argentina",
    "Population":792000,
    "Total":"820",
    "Rate":0.103535354
    }
  },
  {
    "type": "Feature",
    "geometry": {
       "type": "Point",
       "coordinates":  [ -104.791914,38.863443 ]
    },
    "properties": {
    "City":"Colorado Springs",
    "Country":"United States of America",
    "Population":614000,
    "Total":"633",
    "Rate":0.103094463
    }
  },
  {
    "type": "Feature",
    "geometry": {
       "type": "Point",
       "coordinates":  [ -84.518783,39.104722 ]
    },
    "properties": {
    "City":"Cincinnati",
    "Country":"United States of America",
    "Population":1688000,
    "Total":"1714",
    "Rate":0.101540284
    }
  },
  {
    "type": "Feature",
    "geometry": {
       "type": "Point",
       "coordinates":  [ 121.46,31.22 ]
    },
    "properties": {
    "City":"Shanghai",
    "Country":"China",
    "Population":23741000,
    "Total":"23587",
    "Rate":0.099351333
    }
  },
  {
    "type": "Feature",
    "geometry": {
       "type": "Point",
       "coordinates":  [ 8.68333,50.11667 ]
    },
    "properties": {
    "City":"Frankfurt am Main",
    "Country":"Germany",
    "Population":715000,
    "Total":"710",
    "Rate":0.099300699
    }
  },
  {
    "type": "Feature",
    "geometry": {
       "type": "Point",
       "coordinates":  [ -35.88,-7.23 ]
    },
    "properties": {
    "City":"Campina Grande",
    "Country":"Brazil",
    "Population":386000,
    "Total":"382",
    "Rate":0.098963731
    }
  },
  {
    "type": "Feature",
    "geometry": {
       "type": "Point",
       "coordinates":  [ -83.927657,35.960749 ]
    },
    "properties": {
    "City":"Knoxville",
    "Country":"United States of America",
    "Population":647000,
    "Total":"639",
    "Rate":0.098763524
    }
  },
  {
    "type": "Feature",
    "geometry": {
       "type": "Point",
       "coordinates":  [ -76.3055144,40.0378755 ]
    },
    "properties": {
    "City":"Lancaster",
    "Country":"United States of America",
    "Population":449000,
    "Total":"443",
    "Rate":0.098663697
    }
  },
  {
    "type": "Feature",
    "geometry": {
       "type": "Point",
       "coordinates":  [ -76.79358,17.99702 ]
    },
    "properties": {
    "City":"Kingston",
    "Country":"Jamaica",
    "Population":588000,
    "Total":"576",
    "Rate":0.097959184
    }
  },
  {
    "type": "Feature",
    "geometry": {
       "type": "Point",
       "coordinates":  [ 36.81667,-1.28333 ]
    },
    "properties": {
    "City":"Nairobi",
    "Country":"Kenya",
    "Population":3915000,
    "Total":"3835",
    "Rate":0.097956577
    }
  },
  {
    "type": "Feature",
    "geometry": {
       "type": "Point",
       "coordinates":  [ -0.87734,41.65606 ]
    },
    "properties": {
    "City":"Zaragoza",
    "Country":"Spain",
    "Population":701000,
    "Total":"684",
    "Rate":0.097574893
    }
  },
  {
    "type": "Feature",
    "geometry": {
       "type": "Point",
       "coordinates":  [ -90.197197,38.628612 ]
    },
    "properties": {
    "City":"St. Louis",
    "Country":"United States of America",
    "Population":2184000,
    "Total":"2115",
    "Rate":0.096840659
    }
  },
  {
    "type": "Feature",
    "geometry": {
       "type": "Point",
       "coordinates":  [ 82.9346,55.0415 ]
    },
    "properties": {
    "City":"Novosibirsk",
    "Country":"Russian Federation",
    "Population":1497000,
    "Total":"1431",
    "Rate":0.095591182
    }
  },
  {
    "type": "Feature",
    "geometry": {
       "type": "Point",
       "coordinates":  [ -90.07507,29.95465 ]
    },
    "properties": {
    "City":"New Orleans",
    "Country":"United States of America",
    "Population":921000,
    "Total":"877",
    "Rate":0.095222584
    }
  },
  {
    "type": "Feature",
    "geometry": {
       "type": "Point",
       "coordinates":  [ -106.609991,35.110703 ]
    },
    "properties": {
    "City":"Albuquerque",
    "Country":"United States of America",
    "Population":827000,
    "Total":"785",
    "Rate":0.094921403
    }
  },
  {
    "type": "Feature",
    "geometry": {
       "type": "Point",
       "coordinates":  [ 153.43,-28 ]
    },
    "properties": {
    "City":"Gold Coast",
    "Country":"Australia",
    "Population":588000,
    "Total":"555",
    "Rate":0.094387755
    }
  },
  {
    "type": "Feature",
    "geometry": {
       "type": "Point",
       "coordinates":  [ 114.06,22.54 ]
    },
    "properties": {
    "City":"Shenzhen",
    "Country":"China",
    "Population":10749000,
    "Total":"9874",
    "Rate":0.091859708
    }
  },
  {
    "type": "Feature",
    "geometry": {
       "type": "Point",
       "coordinates":  [ -45.89,-23.18 ]
    },
    "properties": {
    "City":"Ṣo Jos̩ dos Campos",
    "Country":"Brazil",
    "Population":572000,
    "Total":"521",
    "Rate":0.091083916
    }
  },
  {
    "type": "Feature",
    "geometry": {
       "type": "Point",
       "coordinates":  [ 21.43333,42 ]
    },
    "properties": {
    "City":"Skopje",
    "Country":"TFYR Macedonia",
    "Population":503000,
    "Total":"458",
    "Rate":0.091053678
    }
  },
  {
    "type": "Feature",
    "geometry": {
       "type": "Point",
       "coordinates":  [ -73.78,42.66 ]
    },
    "properties": {
    "City":"Albany",
    "Country":"United States of America",
    "Population":613000,
    "Total":"554",
    "Rate":0.090375204
    }
  },
  {
    "type": "Feature",
    "geometry": {
       "type": "Point",
       "coordinates":  [ -1.13004,37.98704 ]
    },
    "properties": {
    "City":"Murcia",
    "Country":"Spain",
    "Population":463000,
    "Total":"414",
    "Rate":0.089416847
    }
  },
  {
    "type": "Feature",
    "geometry": {
       "type": "Point",
       "coordinates":  [ 30.326228,59.929858 ]
    },
    "properties": {
    "City":"Sankt Peterburg (Saint Petersburg)",
    "Country":"Russian Federation",
    "Population":4993000,
    "Total":"4448",
    "Rate":0.089084719
    }
  },
  {
    "type": "Feature",
    "geometry": {
       "type": "Point",
       "coordinates":  [ -72.929857,41.3019 ]
    },
    "properties": {
    "City":"New Haven",
    "Country":"United States of America",
    "Population":578000,
    "Total":"506",
    "Rate":0.087543253
    }
  },
  {
    "type": "Feature",
    "geometry": {
       "type": "Point",
       "coordinates":  [ -1.61396,54.97328 ]
    },
    "properties": {
    "City":"Newcastle upon Tyne",
    "Country":"United Kingdom",
    "Population":791000,
    "Total":"688",
    "Rate":0.086978508
    }
  },
  {
    "type": "Feature",
    "geometry": {
       "type": "Point",
       "coordinates":  [ -115.13983,36.169941 ]
    },
    "properties": {
    "City":"Las Vegas",
    "Country":"United States of America",
    "Population":2270000,
    "Total":"1970",
    "Rate":0.086784141
    }
  },
  {
    "type": "Feature",
    "geometry": {
       "type": "Point",
       "coordinates":  [ -75.16379,39.95234 ]
    },
    "properties": {
    "City":"Philadelphia",
    "Country":"United States of America",
    "Population":5585000,
    "Total":"4829",
    "Rate":0.086463742
    }
  },
  {
    "type": "Feature",
    "geometry": {
       "type": "Point",
       "coordinates":  [ -52.34,-31.77 ]
    },
    "properties": {
    "City":"Pelotas",
    "Country":"Brazil",
    "Population":308000,
    "Total":"266",
    "Rate":0.086363636
    }
  },
  {
    "type": "Feature",
    "geometry": {
       "type": "Point",
       "coordinates":  [ -2.97794,53.41058 ]
    },
    "properties": {
    "City":"Liverpool",
    "Country":"United Kingdom",
    "Population":870000,
    "Total":"749",
    "Rate":0.086091954
    }
  },
  {
    "type": "Feature",
    "geometry": {
       "type": "Point",
       "coordinates":  [ -71.802347,42.262599 ]
    },
    "properties": {
    "City":"Worcester",
    "Country":"United States of America",
    "Population":518000,
    "Total":"443",
    "Rate":0.085521236
    }
  },
  {
    "type": "Feature",
    "geometry": {
       "type": "Point",
       "coordinates":  [ -70.65,-33.46 ]
    },
    "properties": {
    "City":"Santiago",
    "Country":"Chile",
    "Population":6507000,
    "Total":"5459",
    "Rate":0.083894268
    }
  },
  {
    "type": "Feature",
    "geometry": {
       "type": "Point",
       "coordinates":  [ -98.493536,29.424113 ]
    },
    "properties": {
    "City":"San Antonio",
    "Country":"United States of America",
    "Population":2030000,
    "Total":"1680",
    "Rate":0.082758621
    }
  },
  {
    "type": "Feature",
    "geometry": {
       "type": "Point",
       "coordinates":  [ -87.90647,43.0389 ]
    },
    "properties": {
    "City":"Milwaukee",
    "Country":"United States of America",
    "Population":1409000,
    "Total":"1159",
    "Rate":0.08225692
    }
  },
  {
    "type": "Feature",
    "geometry": {
       "type": "Point",
       "coordinates":  [ 12.481142,41.894743 ]
    },
    "properties": {
    "City":"Roma (Rome)",
    "Country":"Italy",
    "Population":3718000,
    "Total":"3050",
    "Rate":0.082033351
    }
  },
  {
    "type": "Feature",
    "geometry": {
       "type": "Point",
       "coordinates":  [ 126.97783,37.56826 ]
    },
    "properties": {
    "City":"Seoul",
    "Country":"Republic of Korea",
    "Population":9774000,
    "Total":"7926",
    "Rate":0.081092695
    }
  },
  {
    "type": "Feature",
    "geometry": {
       "type": "Point",
       "coordinates":  [ 84.97417,56.49417 ]
    },
    "properties": {
    "City":"Tomsk",
    "Country":"Russian Federation",
    "Population":546000,
    "Total":"441",
    "Rate":0.080769231
    }
  },
  {
    "type": "Feature",
    "geometry": {
       "type": "Point",
       "coordinates":  [ 2.65024,39.56939 ]
    },
    "properties": {
    "City":"Palma",
    "Country":"Spain",
    "Population":429000,
    "Total":"345",
    "Rate":0.08041958
    }
  },
  {
    "type": "Feature",
    "geometry": {
       "type": "Point",
       "coordinates":  [ -95.3693896,29.7601927 ]
    },
    "properties": {
    "City":"Houston",
    "Country":"United States of America",
    "Population":5638000,
    "Total":"4525",
    "Rate":0.080258957
    }
  },
  {
    "type": "Feature",
    "geometry": {
       "type": "Point",
       "coordinates":  [ -1.8998,52.4814 ]
    },
    "properties": {
    "City":"Birmingham (West Midlands)",
    "Country":"United Kingdom",
    "Population":2515000,
    "Total":"2007",
    "Rate":0.079801193
    }
  },
  {
    "type": "Feature",
    "geometry": {
       "type": "Point",
       "coordinates":  [ 0.68333,47.38333 ]
    },
    "properties": {
    "City":"Tours",
    "Country":"France",
    "Population":353000,
    "Total":"280",
    "Rate":0.079320113
    }
  },
  {
    "type": "Feature",
    "geometry": {
       "type": "Point",
       "coordinates":  [ -103.71667,19.23333 ]
    },
    "properties": {
    "City":"Colima",
    "Country":"Mexico",
    "Population":367000,
    "Total":"289",
    "Rate":0.078746594
    }
  },
  {
    "type": "Feature",
    "geometry": {
       "type": "Point",
       "coordinates":  [ 7.677218,45.068672 ]
    },
    "properties": {
    "City":"Torino (Turin)",
    "Country":"Italy",
    "Population":1765000,
    "Total":"1389",
    "Rate":0.078696884
    }
  },
  {
    "type": "Feature",
    "geometry": {
       "type": "Point",
       "coordinates":  [ -68.00765,10.16202 ]
    },
    "properties": {
    "City":"Valencia",
    "Country":"Venezuela (Bolivarian Republic of)",
    "Population":1734000,
    "Total":"1362",
    "Rate":0.078546713
    }
  },
  {
    "type": "Feature",
    "geometry": {
       "type": "Point",
       "coordinates":  [ -81.687402,41.498587 ]
    },
    "properties": {
    "City":"Cleveland",
    "Country":"United States of America",
    "Population":1773000,
    "Total":"1389",
    "Rate":0.078341794
    }
  },
  {
    "type": "Feature",
    "geometry": {
       "type": "Point",
       "coordinates":  [ 11.25,43.76667 ]
    },
    "properties": {
    "City":"Florence",
    "Country":"Italy",
    "Population":701000,
    "Total":"543",
    "Rate":0.07746077
    }
  },
  {
    "type": "Feature",
    "geometry": {
       "type": "Point",
       "coordinates":  [ 7.010388,51.45374 ]
    },
    "properties": {
    "City":"Essen",
    "Country":"Germany",
    "Population":566000,
    "Total":"437",
    "Rate":0.077208481
    }
  },
  {
    "type": "Feature",
    "geometry": {
       "type": "Point",
       "coordinates":  [ 77.88333333,29.86666667 ]
    },
    "properties": {
    "City":"Roorkee",
    "Country":"India",
    "Population":397000,
    "Total":"303",
    "Rate":0.076322418
    }
  },
  {
    "type": "Feature",
    "geometry": {
       "type": "Point",
       "coordinates":  [ 44.83368,41.69411 ]
    },
    "properties": {
    "City":"Tbilisi",
    "Country":"Georgia",
    "Population":1147000,
    "Total":"873",
    "Rate":0.076111595
    }
  },
  {
    "type": "Feature",
    "geometry": {
       "type": "Point",
       "coordinates":  [ -79.791751,36.073233 ]
    },
    "properties": {
    "City":"Greensboro",
    "Country":"United States of America",
    "Population":337000,
    "Total":"255",
    "Rate":0.075667656
    }
  },
  {
    "type": "Feature",
    "geometry": {
       "type": "Point",
       "coordinates":  [ -64.18,-31.41 ]
    },
    "properties": {
    "City":"C̟rdoba",
    "Country":"Argentina",
    "Population":1511000,
    "Total":"1141",
    "Rate":0.075512905
    }
  },
  {
    "type": "Feature",
    "geometry": {
       "type": "Point",
       "coordinates":  [ 55.311265,25.272061 ]
    },
    "properties": {
    "City":"Dubayy (Dubai)",
    "Country":"United Arab EmiRates",
    "Population":2415000,
    "Total":"1817",
    "Rate":0.075238095
    }
  },
  {
    "type": "Feature",
    "geometry": {
       "type": "Point",
       "coordinates":  [ -95.937332,36.131294 ]
    },
    "properties": {
    "City":"Tulsa",
    "Country":"United States of America",
    "Population":711000,
    "Total":"532",
    "Rate":0.074824191
    }
  },
  {
    "type": "Feature",
    "geometry": {
       "type": "Point",
       "coordinates":  [ 35.94503,31.95522 ]
    },
    "properties": {
    "City":"Amman",
    "Country":"Jordan",
    "Population":1155000,
    "Total":"853",
    "Rate":0.073852814
    }
  },
  {
    "type": "Feature",
    "geometry": {
       "type": "Point",
       "coordinates":  [ -122.71443,38.44047 ]
    },
    "properties": {
    "City":"Santa Rosa",
    "Country":"United States of America",
    "Population":320000,
    "Total":"235",
    "Rate":0.0734375
    }
  },
  {
    "type": "Feature",
    "geometry": {
       "type": "Point",
       "coordinates":  [ -157.826182,21.30895 ]
    },
    "properties": {
    "City":"Honolulu",
    "Country":"United States of America",
    "Population":848000,
    "Total":"622",
    "Rate":0.073349057
    }
  },
  {
    "type": "Feature",
    "geometry": {
       "type": "Point",
       "coordinates":  [ 10.99779,45.43419 ]
    },
    "properties": {
    "City":"Verona",
    "Country":"Italy",
    "Population":606000,
    "Total":"441",
    "Rate":0.072772277
    }
  },
  {
    "type": "Feature",
    "geometry": {
       "type": "Point",
       "coordinates":  [ 44.51,40.18 ]
    },
    "properties": {
    "City":"Yerevan",
    "Country":"Armenia",
    "Population":1044000,
    "Total":"753",
    "Rate":0.072126437
    }
  },
  {
    "type": "Feature",
    "geometry": {
       "type": "Point",
       "coordinates":  [ -78.917579,35.066663 ]
    },
    "properties": {
    "City":"Fayetteville",
    "Country":"United States of America",
    "Population":329000,
    "Total":"237",
    "Rate":0.072036474
    }
  },
  {
    "type": "Feature",
    "geometry": {
       "type": "Point",
       "coordinates":  [ -1.1317,52.6386 ]
    },
    "properties": {
    "City":"Leicester",
    "Country":"United Kingdom",
    "Population":536000,
    "Total":"381",
    "Rate":0.07108209
    }
  },
  {
    "type": "Feature",
    "geometry": {
       "type": "Point",
       "coordinates":  [ 123.89071,10.31672 ]
    },
    "properties": {
    "City":"Cebu City",
    "Country":"Philippines",
    "Population":951000,
    "Total":"669",
    "Rate":0.070347003
    }
  },
  {
    "type": "Feature",
    "geometry": {
       "type": "Point",
       "coordinates":  [ 120.97,24.81 ]
    },
    "properties": {
    "City":"Hsinchu",
    "Country":"China",
    "Population":519000,
    "Total":"365",
    "Rate":0.070327553
    }
  },
  {
    "type": "Feature",
    "geometry": {
       "type": "Point",
       "coordinates":  [ -35.21,-5.8 ]
    },
    "properties": {
    "City":"Natal",
    "Country":"Brazil",
    "Population":1167000,
    "Total":"814",
    "Rate":0.0697515
    }
  },
  {
    "type": "Feature",
    "geometry": {
       "type": "Point",
       "coordinates":  [ -84.192906,39.758406 ]
    },
    "properties": {
    "City":"Dayton",
    "Country":"United States of America",
    "Population":733000,
    "Total":"498",
    "Rate":0.067939973
    }
  },
  {
    "type": "Feature",
    "geometry": {
       "type": "Point",
       "coordinates":  [ -3.9432,51.6208 ]
    },
    "properties": {
    "City":"Swansea",
    "Country":"United Kingdom",
    "Population":309000,
    "Total":"206",
    "Rate":0.066666667
    }
  },
  {
    "type": "Feature",
    "geometry": {
       "type": "Point",
       "coordinates":  [ -57.95,-34.92 ]
    },
    "properties": {
    "City":"La Plata",
    "Country":"Argentina",
    "Population":846000,
    "Total":"562",
    "Rate":0.06643026
    }
  },
  {
    "type": "Feature",
    "geometry": {
       "type": "Point",
       "coordinates":  [ -46.64,-23.55 ]
    },
    "properties": {
    "City":"Ṣo Paulo",
    "Country":"Brazil",
    "Population":21066000,
    "Total":"13864",
    "Rate":0.065812209
    }
  },
  {
    "type": "Feature",
    "geometry": {
       "type": "Point",
       "coordinates":  [ -68.54,-31.54 ]
    },
    "properties": {
    "City":"San Juan",
    "Country":"Argentina",
    "Population":497000,
    "Total":"324",
    "Rate":0.065191147
    }
  },
  {
    "type": "Feature",
    "geometry": {
       "type": "Point",
       "coordinates":  [ 139.69171,35.6895 ]
    },
    "properties": {
    "City":"Tokyo",
    "Country":"Japan",
    "Population":38001000,
    "Total":"24614",
    "Rate":0.06477198
    }
  },
  {
    "type": "Feature",
    "geometry": {
       "type": "Point",
       "coordinates":  [ -91.15455,30.45075 ]
    },
    "properties": {
    "City":"Baton Rouge",
    "Country":"United States of America",
    "Population":663000,
    "Total":"429",
    "Rate":0.064705882
    }
  },
  {
    "type": "Feature",
    "geometry": {
       "type": "Point",
       "coordinates":  [ -92.275359,34.742048 ]
    },
    "properties": {
    "City":"Little Rock",
    "Country":"United States of America",
    "Population":473000,
    "Total":"306",
    "Rate":0.064693446
    }
  },
  {
    "type": "Feature",
    "geometry": {
       "type": "Point",
       "coordinates":  [ -85.126546,41.078348 ]
    },
    "properties": {
    "City":"Fort Wayne",
    "Country":"United States of America",
    "Population":327000,
    "Total":"209",
    "Rate":0.063914373
    }
  },
  {
    "type": "Feature",
    "geometry": {
       "type": "Point",
       "coordinates":  [ -97.516389,35.4675 ]
    },
    "properties": {
    "City":"Oklahoma City",
    "Country":"United States of America",
    "Population":926000,
    "Total":"590",
    "Rate":0.063714903
    }
  },
  {
    "type": "Feature",
    "geometry": {
       "type": "Point",
       "coordinates":  [ 104.07,30.67 ]
    },
    "properties": {
    "City":"Chengdu",
    "Country":"China",
    "Population":7556000,
    "Total":"4804",
    "Rate":0.063578613
    }
  },
  {
    "type": "Feature",
    "geometry": {
       "type": "Point",
       "coordinates":  [ -121.4944,38.58157 ]
    },
    "properties": {
    "City":"Sacramento",
    "Country":"United States of America",
    "Population":1920000,
    "Total":"1212",
    "Rate":0.063125
    }
  },
  {
    "type": "Feature",
    "geometry": {
       "type": "Point",
       "coordinates":  [ -83.549856,41.656529 ]
    },
    "properties": {
    "City":"Toledo",
    "Country":"United States of America",
    "Population":509000,
    "Total":"321",
    "Rate":0.063064833
    }
  },
  {
    "type": "Feature",
    "geometry": {
       "type": "Point",
       "coordinates":  [ -71.417702,41.824037 ]
    },
    "properties": {
    "City":"Providence",
    "Country":"United States of America",
    "Population":1196000,
    "Total":"750",
    "Rate":0.06270903
    }
  },
  {
    "type": "Feature",
    "geometry": {
       "type": "Point",
       "coordinates":  [ -49.06,-22.31 ]
    },
    "properties": {
    "City":"Bauru",
    "Country":"Brazil",
    "Population":352000,
    "Total":"219",
    "Rate":0.062215909
    }
  },
  {
    "type": "Feature",
    "geometry": {
       "type": "Point",
       "coordinates":  [ -47.07,-22.91 ]
    },
    "properties": {
    "City":"Campinas",
    "Country":"Brazil",
    "Population":3047000,
    "Total":"1893",
    "Rate":0.062126682
    }
  },
  {
    "type": "Feature",
    "geometry": {
       "type": "Point",
       "coordinates":  [ -49.27,-25.43 ]
    },
    "properties": {
    "City":"Curitiba",
    "Country":"Brazil",
    "Population":3474000,
    "Total":"2155",
    "Rate":0.062032239
    }
  },
  {
    "type": "Feature",
    "geometry": {
       "type": "Point",
       "coordinates":  [ 76.260069,9.930693 ]
    },
    "properties": {
    "City":"Kochi (Cochin)",
    "Country":"India",
    "Population":2416000,
    "Total":"1490",
    "Rate":0.061672185
    }
  },
  {
    "type": "Feature",
    "geometry": {
       "type": "Point",
       "coordinates":  [ 7.18333,51.26667 ]
    },
    "properties": {
    "City":"Wuppertal",
    "Country":"Germany",
    "Population":344000,
    "Total":"208",
    "Rate":0.060465116
    }
  },
  {
    "type": "Feature",
    "geometry": {
       "type": "Point",
       "coordinates":  [ 78.16667,11.65 ]
    },
    "properties": {
    "City":"Salem",
    "Country":"India",
    "Population":1003000,
    "Total":"606",
    "Rate":0.060418744
    }
  },
  {
    "type": "Feature",
    "geometry": {
       "type": "Point",
       "coordinates":  [ -119.771119,36.754529 ]
    },
    "properties": {
    "City":"Fresno",
    "Country":"United States of America",
    "Population":712000,
    "Total":"430",
    "Rate":0.060393258
    }
  },
  {
    "type": "Feature",
    "geometry": {
       "type": "Point",
       "coordinates":  [ 28.9497,41.0138 ]
    },
    "properties": {
    "City":"Istanbul",
    "Country":"Turkey",
    "Population":14164000,
    "Total":"8545",
    "Rate":0.060329003
    }
  },
  {
    "type": "Feature",
    "geometry": {
       "type": "Point",
       "coordinates":  [ -73.59,45.51 ]
    },
    "properties": {
    "City":"Montr̩al",
    "Country":"Canada",
    "Population":3981000,
    "Total":"2399",
    "Rate":0.060261241
    }
  },
  {
    "type": "Feature",
    "geometry": {
       "type": "Point",
       "coordinates":  [ 1.09932,49.44313 ]
    },
    "properties": {
    "City":"Rouen",
    "Country":"France",
    "Population":464000,
    "Total":"278",
    "Rate":0.059913793
    }
  },
  {
    "type": "Feature",
    "geometry": {
       "type": "Point",
       "coordinates":  [ 75.8333,22.71792 ]
    },
    "properties": {
    "City":"Indore",
    "Country":"India",
    "Population":2441000,
    "Total":"1461",
    "Rate":0.059852519
    }
  },
  {
    "type": "Feature",
    "geometry": {
       "type": "Point",
       "coordinates":  [ 85.83333,20.23333 ]
    },
    "properties": {
    "City":"Bhubaneswar",
    "Country":"India",
    "Population":999000,
    "Total":"597",
    "Rate":0.05975976
    }
  },
  {
    "type": "Feature",
    "geometry": {
       "type": "Point",
       "coordinates":  [ -97.336226,37.688848 ]
    },
    "properties": {
    "City":"Wichita",
    "Country":"United States of America",
    "Population":500000,
    "Total":"297",
    "Rate":0.0594
    }
  },
  {
    "type": "Feature",
    "geometry": {
       "type": "Point",
       "coordinates":  [ 49.12214,55.78874 ]
    },
    "properties": {
    "City":"Kazan",
    "Country":"Russian Federation",
    "Population":1162000,
    "Total":"689",
    "Rate":0.05929432
    }
  },
  {
    "type": "Feature",
    "geometry": {
       "type": "Point",
       "coordinates":  [ -60.64,-32.95 ]
    },
    "properties": {
    "City":"Rosario",
    "Country":"Argentina",
    "Population":1381000,
    "Total":"811",
    "Rate":0.058725561
    }
  },
  {
    "type": "Feature",
    "geometry": {
       "type": "Point",
       "coordinates":  [ 5.57,50.63 ]
    },
    "properties": {
    "City":"Li̬ge",
    "Country":"Belgium",
    "Population":660000,
    "Total":"387",
    "Rate":0.058636364
    }
  },
  {
    "type": "Feature",
    "geometry": {
       "type": "Point",
       "coordinates":  [ -47.46,-23.5 ]
    },
    "properties": {
    "City":"Sorocaba",
    "Country":"Brazil",
    "Population":727000,
    "Total":"426",
    "Rate":0.058596974
    }
  },
  {
    "type": "Feature",
    "geometry": {
       "type": "Point",
       "coordinates":  [ 75.81667,26.91667 ]
    },
    "properties": {
    "City":"Jaipur",
    "Country":"India",
    "Population":3461000,
    "Total":"2028",
    "Rate":0.058595782
    }
  },
  {
    "type": "Feature",
    "geometry": {
       "type": "Point",
       "coordinates":  [ 23.83,53.69 ]
    },
    "properties": {
    "City":"Grodno",
    "Country":"Belarus",
    "Population":340000,
    "Total":"199",
    "Rate":0.058529412
    }
  },
  {
    "type": "Feature",
    "geometry": {
       "type": "Point",
       "coordinates":  [ 19.459957,51.759433 ]
    },
    "properties": {
    "City":"̟d",
    "Country":"Poland",
    "Population":703000,
    "Total":"410",
    "Rate":0.058321479
    }
  },
  {
    "type": "Feature",
    "geometry": {
       "type": "Point",
       "coordinates":  [ 30.98,52.43 ]
    },
    "properties": {
    "City":"Gomel",
    "Country":"Belarus",
    "Population":483000,
    "Total":"278",
    "Rate":0.057556936
    }
  },
  {
    "type": "Feature",
    "geometry": {
       "type": "Point",
       "coordinates":  [ 8.93386,44.40632 ]
    },
    "properties": {
    "City":"Genova (Genoa)",
    "Country":"Italy",
    "Population":692000,
    "Total":"398",
    "Rate":0.057514451
    }
  },
  {
    "type": "Feature",
    "geometry": {
       "type": "Point",
       "coordinates":  [ 30.2,55.19 ]
    },
    "properties": {
    "City":"Vitebsk",
    "Country":"Belarus",
    "Population":353000,
    "Total":"202",
    "Rate":0.057223796
    }
  },
  {
    "type": "Feature",
    "geometry": {
       "type": "Point",
       "coordinates":  [ -83.000186,39.962205 ]
    },
    "properties": {
    "City":"Columbus",
    "Country":"United States of America",
    "Population":1505000,
    "Total":"858",
    "Rate":0.057009967
    }
  },
  {
    "type": "Feature",
    "geometry": {
       "type": "Point",
       "coordinates":  [ 10.92539,44.64783 ]
    },
    "properties": {
    "City":"Modena",
    "Country":"Italy",
    "Population":342000,
    "Total":"194",
    "Rate":0.056725146
    }
  },
  {
    "type": "Feature",
    "geometry": {
       "type": "Point",
       "coordinates":  [ 10.32898,44.80266 ]
    },
    "properties": {
    "City":"Parma",
    "Country":"Italy",
    "Population":314000,
    "Total":"177",
    "Rate":0.056369427
    }
  },
  {
    "type": "Feature",
    "geometry": {
       "type": "Point",
       "coordinates":  [ 114.19,22.28 ]
    },
    "properties": {
    "City":"Hong Kong",
    "Country":"China, Hong Kong SAR",
    "Population":7314000,
    "Total":"4099",
    "Rate":0.056043205
    }
  },
  {
    "type": "Feature",
    "geometry": {
       "type": "Point",
       "coordinates":  [ 106.841646,-6.211831 ]
    },
    "properties": {
    "City":"Jakarta",
    "Country":"Indonesia",
    "Population":10323000,
    "Total":"5747",
    "Rate":0.055671801
    }
  },
  {
    "type": "Feature",
    "geometry": {
       "type": "Point",
       "coordinates":  [ 34.98333,48.45 ]
    },
    "properties": {
    "City":"Dnipropetrovsk",
    "Country":"Ukraine",
    "Population":957000,
    "Total":"530",
    "Rate":0.0553814
    }
  },
  {
    "type": "Feature",
    "geometry": {
       "type": "Point",
       "coordinates":  [ -58.4,-34.61 ]
    },
    "properties": {
    "City":"Buenos Aires",
    "Country":"Argentina",
    "Population":15180000,
    "Total":"8314",
    "Rate":0.054769433
    }
  },
  {
    "type": "Feature",
    "geometry": {
       "type": "Point",
       "coordinates":  [ 18.00762,53.1235 ]
    },
    "properties": {
    "City":"Bydgoszcz",
    "Country":"Poland",
    "Population":359000,
    "Total":"195",
    "Rate":0.054317549
    }
  },
  {
    "type": "Feature",
    "geometry": {
       "type": "Point",
       "coordinates":  [ -63.17,-17.8 ]
    },
    "properties": {
    "City":"Santa Cruz",
    "Country":"Bolivia (Plurinational State of)",
    "Population":2107000,
    "Total":"1144",
    "Rate":0.054295206
    }
  },
  {
    "type": "Feature",
    "geometry": {
       "type": "Point",
       "coordinates":  [ -90.047458,35.140814 ]
    },
    "properties": {
    "City":"Memphis",
    "Country":"United States of America",
    "Population":1106000,
    "Total":"590",
    "Rate":0.053345389
    }
  },
  {
    "type": "Feature",
    "geometry": {
       "type": "Point",
       "coordinates":  [ 108.212426,16.051264 ]
    },
    "properties": {
    "City":"Da Nang",
    "Country":"Viet Nam",
    "Population":952000,
    "Total":"507",
    "Rate":0.053256303
    }
  },
  {
    "type": "Feature",
    "geometry": {
       "type": "Point",
       "coordinates":  [ -43.35,-21.76 ]
    },
    "properties": {
    "City":"Juiz De Fora",
    "Country":"Brazil",
    "Population":541000,
    "Total":"288",
    "Rate":0.05323475
    }
  },
  {
    "type": "Feature",
    "geometry": {
       "type": "Point",
       "coordinates":  [ 76.96139,10.9925 ]
    },
    "properties": {
    "City":"Coimbatore",
    "Country":"India",
    "Population":2549000,
    "Total":"1349",
    "Rate":0.052922715
    }
  },
  {
    "type": "Feature",
    "geometry": {
       "type": "Point",
       "coordinates":  [ -78.52,-0.23 ]
    },
    "properties": {
    "City":"Quito",
    "Country":"Ecuador",
    "Population":1726000,
    "Total":"903",
    "Rate":0.052317497
    }
  },
  {
    "type": "Feature",
    "geometry": {
       "type": "Point",
       "coordinates":  [ 131.87353,43.10562 ]
    },
    "properties": {
    "City":"Vladivostok",
    "Country":"Russian Federation",
    "Population":590000,
    "Total":"305",
    "Rate":0.051694915
    }
  },
  {
    "type": "Feature",
    "geometry": {
       "type": "Point",
       "coordinates":  [ 90.41,23.71 ]
    },
    "properties": {
    "City":"Dhaka",
    "Country":"Bangladesh",
    "Population":17598000,
    "Total":"9097",
    "Rate":0.051693374
    }
  },
  {
    "type": "Feature",
    "geometry": {
       "type": "Point",
       "coordinates":  [ 11.5409,45.55729 ]
    },
    "properties": {
    "City":"Vicenza",
    "Country":"Italy",
    "Population":313000,
    "Total":"161",
    "Rate":0.0514377
    }
  },
  {
    "type": "Feature",
    "geometry": {
       "type": "Point",
       "coordinates":  [ -6.62,4.73 ]
    },
    "properties": {
    "City":"San Pedro",
    "Country":"CÌ«te d'Ivoire",
    "Population":347000,
    "Total":"178",
    "Rate":0.05129683
    }
  },
  {
    "type": "Feature",
    "geometry": {
       "type": "Point",
       "coordinates":  [ -43.21,-22.9 ]
    },
    "properties": {
    "City":"Rio de Janeiro",
    "Country":"Brazil",
    "Population":12902000,
    "Total":"6597",
    "Rate":0.051131608
    }
  },
  {
    "type": "Feature",
    "geometry": {
       "type": "Point",
       "coordinates":  [ 46.00861,51.54056 ]
    },
    "properties": {
    "City":"Saratov",
    "Country":"Russian Federation",
    "Population":815000,
    "Total":"416",
    "Rate":0.051042945
    }
  },
  {
    "type": "Feature",
    "geometry": {
       "type": "Point",
       "coordinates":  [ -68.83,-32.89 ]
    },
    "properties": {
    "City":"Mendoza",
    "Country":"Argentina",
    "Population":1009000,
    "Total":"513",
    "Rate":0.050842418
    }
  },
  {
    "type": "Feature",
    "geometry": {
       "type": "Point",
       "coordinates":  [ -48.28,-18.92 ]
    },
    "properties": {
    "City":"Uberl̢ndia",
    "Country":"Brazil",
    "Population":639000,
    "Total":"324",
    "Rate":0.050704225
    }
  },
  {
    "type": "Feature",
    "geometry": {
       "type": "Point",
       "coordinates":  [ -88.04305,30.69436 ]
    },
    "properties": {
    "City":"Mobile",
    "Country":"United States of America",
    "Population":330000,
    "Total":"167",
    "Rate":0.050606061
    }
  },
  {
    "type": "Feature",
    "geometry": {
       "type": "Point",
       "coordinates":  [ -80.204044,25.789097 ]
    },
    "properties": {
    "City":"Miami",
    "Country":"United States of America",
    "Population":5817000,
    "Total":"2941",
    "Rate":0.050558707
    }
  },
  {
    "type": "Feature",
    "geometry": {
       "type": "Point",
       "coordinates":  [ 35.21633,31.76904 ]
    },
    "properties": {
    "City":"Jerusalem",
    "Country":"Israel",
    "Population":839000,
    "Total":"424",
    "Rate":0.050536353
    }
  },
  {
    "type": "Feature",
    "geometry": {
       "type": "Point",
       "coordinates":  [ -47.81,-21.18 ]
    },
    "properties": {
    "City":"Ribeiṛo  Preto",
    "Country":"Brazil",
    "Population":651000,
    "Total":"328",
    "Rate":0.050384025
    }
  },
  {
    "type": "Feature",
    "geometry": {
       "type": "Point",
       "coordinates":  [ -87.21691,30.42131 ]
    },
    "properties": {
    "City":"Pensacola",
    "Country":"United States of America",
    "Population":348000,
    "Total":"174",
    "Rate":0.05
    }
  },
  {
    "type": "Feature",
    "geometry": {
       "type": "Point",
       "coordinates":  [ 11.88181,45.41519 ]
    },
    "properties": {
    "City":"Padova",
    "Country":"Italy",
    "Population":655000,
    "Total":"327",
    "Rate":0.049923664
    }
  },
  {
    "type": "Feature",
    "geometry": {
       "type": "Point",
       "coordinates":  [ 28.18783,-25.74486 ]
    },
    "properties": {
    "City":"Pretoria",
    "Country":"South Africa",
    "Population":2059000,
    "Total":"1022",
    "Rate":0.049635746
    }
  },
  {
    "type": "Feature",
    "geometry": {
       "type": "Point",
       "coordinates":  [ 38.9725,45.0488 ]
    },
    "properties": {
    "City":"Krasnodar",
    "Country":"Russian Federation",
    "Population":808000,
    "Total":"401",
    "Rate":0.049628713
    }
  },
  {
    "type": "Feature",
    "geometry": {
       "type": "Point",
       "coordinates":  [ 19.82,41.33 ]
    },
    "properties": {
    "City":"Tiraṅ (Tirana)",
    "Country":"Albania",
    "Population":454000,
    "Total":"225",
    "Rate":0.049559471
    }
  },
  {
    "type": "Feature",
    "geometry": {
       "type": "Point",
       "coordinates":  [ 106.801891,-6.606481 ]
    },
    "properties": {
    "City":"Bogor",
    "Country":"Indonesia",
    "Population":1076000,
    "Total":"527",
    "Rate":0.048977695
    }
  },
  {
    "type": "Feature",
    "geometry": {
       "type": "Point",
       "coordinates":  [ -54.62,-20.46 ]
    },
    "properties": {
    "City":"Campo Grande",
    "Country":"Brazil",
    "Population":841000,
    "Total":"411",
    "Rate":0.048870392
    }
  },
  {
    "type": "Feature",
    "geometry": {
       "type": "Point",
       "coordinates":  [ 72.880838,19.073975 ]
    },
    "properties": {
    "City":"Mumbai (Bombay)",
    "Country":"India",
    "Population":21043000,
    "Total":"10248",
    "Rate":0.04870028
    }
  },
  {
    "type": "Feature",
    "geometry": {
       "type": "Point",
       "coordinates":  [ 83.983333,28.233333 ]
    },
    "properties": {
    "City":"Pokhara",
    "Country":"Nepal",
    "Population":329000,
    "Total":"160",
    "Rate":0.048632219
    }
  },
  {
    "type": "Feature",
    "geometry": {
       "type": "Point",
       "coordinates":  [ -81.51901,41.08144 ]
    },
    "properties": {
    "City":"Akron",
    "Country":"United States of America",
    "Population":568000,
    "Total":"275",
    "Rate":0.048415493
    }
  },
  {
    "type": "Feature",
    "geometry": {
       "type": "Point",
       "coordinates":  [ 35.87603,56.86049 ]
    },
    "properties": {
    "City":"Tver",
    "Country":"Russian Federation",
    "Population":399000,
    "Total":"193",
    "Rate":0.048370927
    }
  },
  {
    "type": "Feature",
    "geometry": {
       "type": "Point",
       "coordinates":  [ 79.13333,12.93333 ]
    },
    "properties": {
    "City":"Vellore",
    "Country":"India",
    "Population":528000,
    "Total":"254",
    "Rate":0.048106061
    }
  },
  {
    "type": "Feature",
    "geometry": {
       "type": "Point",
       "coordinates":  [ -47.4,-20.54 ]
    },
    "properties": {
    "City":"Franca",
    "Country":"Brazil",
    "Population":328000,
    "Total":"156",
    "Rate":0.047560976
    }
  },
  {
    "type": "Feature",
    "geometry": {
       "type": "Point",
       "coordinates":  [ 77.21667,28.66667 ]
    },
    "properties": {
    "City":"Delhi",
    "Country":"India",
    "Population":25703000,
    "Total":"12184",
    "Rate":0.047403027
    }
  },
  {
    "type": "Feature",
    "geometry": {
       "type": "Point",
       "coordinates":  [ 73.4,55 ]
    },
    "properties": {
    "City":"Omsk",
    "Country":"Russian Federation",
    "Population":1162000,
    "Total":"550",
    "Rate":0.047332186
    }
  },
  {
    "type": "Feature",
    "geometry": {
       "type": "Point",
       "coordinates":  [ 74.85603,12.91723 ]
    },
    "properties": {
    "City":"Mangalore",
    "Country":"India",
    "Population":657000,
    "Total":"308",
    "Rate":0.046879756
    }
  },
  {
    "type": "Feature",
    "geometry": {
       "type": "Point",
       "coordinates":  [ -48.85,-26.3 ]
    },
    "properties": {
    "City":"Joinville",
    "Country":"Brazil",
    "Population":1219000,
    "Total":"571",
    "Rate":0.046841674
    }
  },
  {
    "type": "Feature",
    "geometry": {
       "type": "Point",
       "coordinates":  [ -43.94,-19.92 ]
    },
    "properties": {
    "City":"Belo Horizonte",
    "Country":"Brazil",
    "Population":5716000,
    "Total":"2661",
    "Rate":0.046553534
    }
  },
  {
    "type": "Feature",
    "geometry": {
       "type": "Point",
       "coordinates":  [ 51.524472,25.274724 ]
    },
    "properties": {
    "City":"Ad-Dawhah (Doha)",
    "Country":"Qatar",
    "Population":718000,
    "Total":"334",
    "Rate":0.046518106
    }
  },
  {
    "type": "Feature",
    "geometry": {
       "type": "Point",
       "coordinates":  [ 10.22727,45.52478 ]
    },
    "properties": {
    "City":"Brescia",
    "Country":"Italy",
    "Population":463000,
    "Total":"215",
    "Rate":0.046436285
    }
  },
  {
    "type": "Feature",
    "geometry": {
       "type": "Point",
       "coordinates":  [ -34.88,-8.05 ]
    },
    "properties": {
    "City":"Recife",
    "Country":"Brazil",
    "Population":3739000,
    "Total":"1736",
    "Rate":0.046429527
    }
  },
  {
    "type": "Feature",
    "geometry": {
       "type": "Point",
       "coordinates":  [ -38.51,-12.97 ]
    },
    "properties": {
    "City":"Salvador",
    "Country":"Brazil",
    "Population":3583000,
    "Total":"1661",
    "Rate":0.046357801
    }
  },
  {
    "type": "Feature",
    "geometry": {
       "type": "Point",
       "coordinates":  [ 120.45,41.58 ]
    },
    "properties": {
    "City":"Chaoyang",
    "Country":"China",
    "Population":506000,
    "Total":"234",
    "Rate":0.046245059
    }
  },
  {
    "type": "Feature",
    "geometry": {
       "type": "Point",
       "coordinates":  [ 32.85427,39.91987 ]
    },
    "properties": {
    "City":"Ankara",
    "Country":"Turkey",
    "Population":4750000,
    "Total":"2187",
    "Rate":0.046042105
    }
  },
  {
    "type": "Feature",
    "geometry": {
       "type": "Point",
       "coordinates":  [ -4.42034,36.72016 ]
    },
    "properties": {
    "City":"Malaga",
    "Country":"Spain",
    "Population":574000,
    "Total":"264",
    "Rate":0.045993031
    }
  },
  {
    "type": "Feature",
    "geometry": {
       "type": "Point",
       "coordinates":  [ 78.03333,30.31667 ]
    },
    "properties": {
    "City":"Dehradun",
    "Country":"India",
    "Population":812000,
    "Total":"373",
    "Rate":0.045935961
    }
  },
  {
    "type": "Feature",
    "geometry": {
       "type": "Point",
       "coordinates":  [ 113.57,22.28 ]
    },
    "properties": {
    "City":"Zhuhai",
    "Country":"China",
    "Population":1542000,
    "Total":"700",
    "Rate":0.04539559
    }
  },
  {
    "type": "Feature",
    "geometry": {
       "type": "Point",
       "coordinates":  [ 76.910127,43.247189 ]
    },
    "properties": {
    "City":"Almaty",
    "Country":"Kazakhstan",
    "Population":1523000,
    "Total":"689",
    "Rate":0.045239659
    }
  },
  {
    "type": "Feature",
    "geometry": {
       "type": "Point",
       "coordinates":  [ 32.58219,0.31628 ]
    },
    "properties": {
    "City":"Kampala",
    "Country":"Uganda",
    "Population":1936000,
    "Total":"872",
    "Rate":0.045041322
    }
  },
  {
    "type": "Feature",
    "geometry": {
       "type": "Point",
       "coordinates":  [ -34.86,-7.12 ]
    },
    "properties": {
    "City":"Jọo Pessoa",
    "Country":"Brazil",
    "Population":1093000,
    "Total":"492",
    "Rate":0.045013724
    }
  },
  {
    "type": "Feature",
    "geometry": {
       "type": "Point",
       "coordinates":  [ 50.15,53.20006 ]
    },
    "properties": {
    "City":"Samara",
    "Country":"Russian Federation",
    "Population":1164000,
    "Total":"521",
    "Rate":0.04475945
    }
  },
  {
    "type": "Feature",
    "geometry": {
       "type": "Point",
       "coordinates":  [ -72.6,-38.73 ]
    },
    "properties": {
    "City":"Temuco",
    "Country":"Chile",
    "Population":362000,
    "Total":"162",
    "Rate":0.044751381
    }
  },
  {
    "type": "Feature",
    "geometry": {
       "type": "Point",
       "coordinates":  [ -2.702435,53.761025 ]
    },
    "properties": {
    "City":"Preston",
    "Country":"United Kingdom",
    "Population":325000,
    "Total":"144",
    "Rate":0.044307692
    }
  },
  {
    "type": "Feature",
    "geometry": {
       "type": "Point",
       "coordinates":  [ 60.6125,56.8575 ]
    },
    "properties": {
    "City":"Yekaterinburg",
    "Country":"Russian Federation",
    "Population":1379000,
    "Total":"611",
    "Rate":0.044307469
    }
  },
  {
    "type": "Feature",
    "geometry": {
       "type": "Point",
       "coordinates":  [ 100.525248,13.721964 ]
    },
    "properties": {
    "City":"Krung Thep (Bangkok)",
    "Country":"Thailand",
    "Population":9270000,
    "Total":"4079",
    "Rate":0.044002157
    }
  },
  {
    "type": "Feature",
    "geometry": {
       "type": "Point",
       "coordinates":  [ -57.56,-38 ]
    },
    "properties": {
    "City":"Mar Del Plata",
    "Country":"Argentina",
    "Population":650000,
    "Total":"286",
    "Rate":0.044
    }
  },
  {
    "type": "Feature",
    "geometry": {
       "type": "Point",
       "coordinates":  [ 6.75,51.43333 ]
    },
    "properties": {
    "City":"Duisburg",
    "Country":"Germany",
    "Population":475000,
    "Total":"207",
    "Rate":0.043578947
    }
  },
  {
    "type": "Feature",
    "geometry": {
       "type": "Point",
       "coordinates":  [ -15.434283,28.110696 ]
    },
    "properties": {
    "City":"Las Palmas Gran Canaria",
    "Country":"Spain",
    "Population":390000,
    "Total":"168",
    "Rate":0.043076923
    }
  },
  {
    "type": "Feature",
    "geometry": {
       "type": "Point",
       "coordinates":  [ 74.59,42.87 ]
    },
    "properties": {
    "City":"Bishkek",
    "Country":"Kyrgyzstan",
    "Population":865000,
    "Total":"370",
    "Rate":0.042774566
    }
  },
  {
    "type": "Feature",
    "geometry": {
       "type": "Point",
       "coordinates":  [ 112.741078,-7.288838 ]
    },
    "properties": {
    "City":"Surabaya",
    "Country":"Indonesia",
    "Population":2853000,
    "Total":"1218",
    "Rate":0.042691903
    }
  },
  {
    "type": "Feature",
    "geometry": {
       "type": "Point",
       "coordinates":  [ 7.62571,51.96236 ]
    },
    "properties": {
    "City":"Muenster (Westfalen)",
    "Country":"Germany",
    "Population":304000,
    "Total":"129",
    "Rate":0.042434211
    }
  },
  {
    "type": "Feature",
    "geometry": {
       "type": "Point",
       "coordinates":  [ 114.27,30.58 ]
    },
    "properties": {
    "City":"Wuhan",
    "Country":"China",
    "Population":7906000,
    "Total":"3331",
    "Rate":0.042132558
    }
  },
  {
    "type": "Feature",
    "geometry": {
       "type": "Point",
       "coordinates":  [ 74.3436111,31.5497222 ]
    },
    "properties": {
    "City":"Lahore",
    "Country":"Pakistan",
    "Population":8741000,
    "Total":"3657",
    "Rate":0.041837318
    }
  },
  {
    "type": "Feature",
    "geometry": {
       "type": "Point",
       "coordinates":  [ 33.5224,44.58883 ]
    },
    "properties": {
    "City":"Sevastopol",
    "Country":"Ukraine",
    "Population":335000,
    "Total":"140",
    "Rate":0.041791045
    }
  },
  {
    "type": "Feature",
    "geometry": {
       "type": "Point",
       "coordinates":  [ -110.967187,29.084507 ]
    },
    "properties": {
    "City":"Hermosillo",
    "Country":"Mexico",
    "Population":804000,
    "Total":"330",
    "Rate":0.041044776
    }
  },
  {
    "type": "Feature",
    "geometry": {
       "type": "Point",
       "coordinates":  [ -75.52,5.07 ]
    },
    "properties": {
    "City":"Manizales",
    "Country":"Colombia",
    "Population":449000,
    "Total":"184",
    "Rate":0.040979955
    }
  },
  {
    "type": "Feature",
    "geometry": {
       "type": "Point",
       "coordinates":  [ 91.750291,26.173547 ]
    },
    "properties": {
    "City":"Guwahati (Gauhati)",
    "Country":"India",
    "Population":1042000,
    "Total":"426",
    "Rate":0.040882917
    }
  },
  {
    "type": "Feature",
    "geometry": {
       "type": "Point",
       "coordinates":  [ 153.1,-26.66 ]
    },
    "properties": {
    "City":"Sunshine Coast",
    "Country":"Australia",
    "Population":348000,
    "Total":"142",
    "Rate":0.040804598
    }
  },
  {
    "type": "Feature",
    "geometry": {
       "type": "Point",
       "coordinates":  [ 12.245,45.66667 ]
    },
    "properties": {
    "City":"Treviso",
    "Country":"Italy",
    "Population":353000,
    "Total":"144",
    "Rate":0.040793201
    }
  },
  {
    "type": "Feature",
    "geometry": {
       "type": "Point",
       "coordinates":  [ -38.54,-3.74 ]
    },
    "properties": {
    "City":"Fortaleza",
    "Country":"Brazil",
    "Population":3880000,
    "Total":"1579",
    "Rate":0.040695876
    }
  },
  {
    "type": "Feature",
    "geometry": {
       "type": "Point",
       "coordinates":  [ -84.08,9.93 ]
    },
    "properties": {
    "City":"San Jos̩",
    "Country":"Costa Rica",
    "Population":1170000,
    "Total":"476",
    "Rate":0.040683761
    }
  },
  {
    "type": "Feature",
    "geometry": {
       "type": "Point",
       "coordinates":  [ 104.92,11.56 ]
    },
    "properties": {
    "City":"Phnum P̩nh (Phnom Penh)",
    "Country":"Cambodia",
    "Population":1731000,
    "Total":"700",
    "Rate":0.040439053
    }
  },
  {
    "type": "Feature",
    "geometry": {
       "type": "Point",
       "coordinates":  [ 70.78333,22.3 ]
    },
    "properties": {
    "City":"Rajkot",
    "Country":"India",
    "Population":1599000,
    "Total":"640",
    "Rate":0.040025016
    }
  },
  {
    "type": "Feature",
    "geometry": {
       "type": "Point",
       "coordinates":  [ -0.1969,5.55602 ]
    },
    "properties": {
    "City":"Accra",
    "Country":"Ghana",
    "Population":2277000,
    "Total":"911",
    "Rate":0.040008783
    }
  },
  {
    "type": "Feature",
    "geometry": {
       "type": "Point",
       "coordinates":  [ 104.29639,52.29778 ]
    },
    "properties": {
    "City":"Irkutsk",
    "Country":"Russian Federation",
    "Population":582000,
    "Total":"232",
    "Rate":0.039862543
    }
  },
  {
    "type": "Feature",
    "geometry": {
       "type": "Point",
       "coordinates":  [ -51.16,-23.31 ]
    },
    "properties": {
    "City":"Londrina",
    "Country":"Brazil",
    "Population":798000,
    "Total":"318",
    "Rate":0.039849624
    }
  },
  {
    "type": "Feature",
    "geometry": {
       "type": "Point",
       "coordinates":  [ -78.98,-2.88 ]
    },
    "properties": {
    "City":"Cuenca",
    "Country":"Ecuador",
    "Population":361000,
    "Total":"143",
    "Rate":0.039612188
    }
  },
  {
    "type": "Feature",
    "geometry": {
       "type": "Point",
       "coordinates":  [ 15.08719,37.50213 ]
    },
    "properties": {
    "City":"Catania",
    "Country":"Italy",
    "Population":582000,
    "Total":"230",
    "Rate":0.0395189
    }
  },
  {
    "type": "Feature",
    "geometry": {
       "type": "Point",
       "coordinates":  [ -83.102641,42.387137 ]
    },
    "properties": {
    "City":"Detroit",
    "Country":"United States of America",
    "Population":3639000,
    "Total":"1426",
    "Rate":0.03918659
    }
  },
  {
    "type": "Feature",
    "geometry": {
       "type": "Point",
       "coordinates":  [ 56.28552,58.01741 ]
    },
    "properties": {
    "City":"Perm",
    "Country":"Russian Federation",
    "Population":982000,
    "Total":"374",
    "Rate":0.03808554
    }
  },
  {
    "type": "Feature",
    "geometry": {
       "type": "Point",
       "coordinates":  [ 39.1843,51.67204 ]
    },
    "properties": {
    "City":"Voronezh",
    "Country":"Russian Federation",
    "Population":911000,
    "Total":"346",
    "Rate":0.037980241
    }
  },
  {
    "type": "Feature",
    "geometry": {
       "type": "Point",
       "coordinates":  [ 16.85118,41.11773 ]
    },
    "properties": {
    "City":"Bari",
    "Country":"Italy",
    "Population":618000,
    "Total":"234",
    "Rate":0.037864078
    }
  },
  {
    "type": "Feature",
    "geometry": {
       "type": "Point",
       "coordinates":  [ -80.260491,36.102764 ]
    },
    "properties": {
    "City":"Winston-Salem",
    "Country":"United States of America",
    "Population":448000,
    "Total":"169",
    "Rate":0.037723214
    }
  },